Unique Facility ID,Status,Name,Type,Plant Name,Current Operator,Original Operator,Co-Owner,Constructed Date,Activated Date,Field Name,Latitude,Longitude,Licensed Capacity of Raw Gas(Mcf/d),Licensed Capacity of Sales Gas(Mcf/d),Licensed Capacity of Oil(Bbl/d),Licensed Capacity of Ethane(C2)(Bbl/d),Licensed Capacity of Ethane Plus(C2+)(Bbl/d),Licensed Capacity of Propane(C3)(Bbl/d),Licensed Capacity of Butane(C4)(Bbl/d),Licensed Capacity of Pentane Plus(C5+)(Bbl/d),Licensed Capacity of NGL(Bbl/d),Licensed Capacity of LPG(Bbl/d),Licensed Capacity of Sulphur(ton/d),Design Capacity of Raw Gas(Mcf/d),Design Capacity of Sales Gas(Mcf/d),Design Capacity of Oil(Bbl/d),Design Capacity of Ethane(C2)(Bbl/d),Design Capacity of Ethane Plus(C2+)(Bbl/d),Design Capacity of Propane(C3)(Bbl/d),Design Capacity of Butane(C4)(Bbl/d),Design Capacity of Pentane Plus(C5+)(Bbl/d),Design Capacity of NGL(Bbl/d),Design Capacity of LPG(Bbl/d),Design Capacity of Sulphur(ton/d),Raw Gas(Mcf/d),Sales Gas(Mcf/d),Ethane(C2)(Bbl/d),Ethane Plus(C2+)(Bbl/d),Propane(C3)(Bbl/d),Butane(C4)(Bbl/d),Pentane Plus(C5+)(Bbl/d),Natural Gas Liquids(Bbl/d),Liquefied Petroleum Gas(Bbl/d),Sulphur(ton/d),Sub Type,Location,Date,Raw Gas(Mcf/d).1,Sales Gas(Mcf/d).1,Injection(Mcf/d),Shrinkage(Mcf/d),Fuel(Mcf/d),Flared(Mcf/d),Other(Mcf/d),Oil(SK)(Bbl/d),Methane Plus(C1+)(SK)(Bbl/d),Ethane(C2)(Bbl/d).1,Ethane Plus(C2+)(Bbl/d).1,Propane(C3)(Bbl/d).1,Propane Plus(C3+)(SK)(Bbl/d),Butane(C4)(Bbl/d).1,Butane Plus(C4+)(SK)(Bbl/d),Pentane(C5)(SK)(Bbl/d),Pentane Plus(C5+)(Bbl/d).1,Natural Gas Liquids(Bbl/d).1,Sulphur(ton/d).1,Receipts of Oil(SK)(Bbl/d),Receipts of Ethane(C2)(SK)(Bbl/d),Receipts of Ethane Plus(C2+)(SK)(Bbl/d),Receipts of Propane(C3)(SK)(Bbl/d),Receipts of Propane Plus(C3+)(SK)(Bbl/d),Receipts of Butane(C4)(SK)(Bbl/d),Receipts of Butane Plus(C4+)(SK)(Bbl/d),Receipts of Pentane(C5)(SK)(Bbl/d),Receipts of Pentane Plus(C5+)(SK)(Bbl/d),Oil Production(Bbl/d),Oil Received(Bbl/d),Oil Open Inventory(Bbl/d),Oil Close Inventory(Bbl/d),Oil Delivered(Bbl/d),Gas Production(Mcf/d),Gas Received(Mcf/d),Lease Fuel(Mcf/d),Gas Flared(Mcf/d),Gas Vented(Mcf/d),Gas Meter Diff(Mcf/d),Gas Delivered(Mcf/d),Water Production(Bbl/d),Water Received(Bbl/d),Water Open Inventory(Bbl/d),Water Close Inventory(Bbl/d),Water Meter Diff(Bbl/d),Water Delivered(Bbl/d)
ABGP0001951,Suspended,IMPERIAL DEVON 1&2,GP,1 and 2,IMPERIAL OIL RESOURCES LIMITED,,100.0% - CONIFER ENERGY INC.,,,,54.57231,115.52295,172158.98,132500.61,,16392.93,0.0,0.0,0.0,0.0,,13617.77,,263659.27,179151.28,0.0,34346.48,,18847.15,0.0,0.0,0.0,,0.0,0.0,0.0,0.0,0.0,0.0,0.0,0.02,0.0,,0.0,Gas Plant Fractionation,15-25-064-11W5M,2006-11-01,0.0,0.0,0.0,0.0,0.0,0.0,0.0,0.0,0.0,0.0,0.0,0.0,0.0,0.0,0.0,0.0,0.02,0.0,0.0,0.0,0.0,0.0,0.0,0.0,0.0,0.0,0.0,0.0,,,,,,,,,,,,,,,,,,
ABGP0140267,Active,7G CUTBANK 10-10-065-05W6,GP,7g Cutbank,ARC RESOURCES LTD.,,,1/1/2016,,,54.61249,118.66427,284035.83,270015.91,,0.0,0.0,0.0,0.0,0.0,,11094.33,,247202.64,247202.64,,,,,,,7929.02,,,157.97,0.0,0.0,0.0,0.0,0.0,0.0,0.0,,0.0,Gas Plant Sweet,10-10-065-05W6M,2021-06-01,157.97,0.0,0.0,0.0,100.41,57.56,0.0,0.0,0.0,0.0,0.0,0.0,0.0,0.0,0.0,0.0,0.0,0.0,0.0,0.0,0.0,0.0,0.0,0.0,0.0,0.0,0.0,0.0,,,,,,,,,,,,,,,,,,
ABGP0138811,Active,7G LATOR#2  2/1-21-63-2W6 GP,GP,7g Lator # 2,ARC RESOURCES LTD.,,100.0% - ARC RESOURCES LTD.,1/1/2015,,,54.45974,118.23009,230957.89,220010.35,,0.0,0.0,0.0,0.0,0.0,,4449.06,,198962.81,198962.81,,,,,,,7551.44,,,159830.51,157394.63,0.0,0.0,0.0,0.0,0.0,3935.04,,0.0,Gas Plant Sweet,01-21-063-02W6M,2021-06-01,159830.51,157394.63,0.0,5187.37,1404.46,91.58,0.0,0.0,0.0,0.0,0.0,0.0,0.0,0.0,0.0,0.0,0.0,3935.04,0.0,0.0,0.0,0.0,0.0,0.0,0.0,0.0,0.0,0.0,,,,,,,,,,,,,,,,,,
ABGP0001319,Suspended,D ENERGY ABEE 1-32-61-22W4,GP,Abee,CANLIN RESOURCES PARTNERSHIP,,,1/1/1976,,,54.31408,113.25368,15008.73,13702.09,,0.0,0.0,0.0,0.0,16.36,,0.0,,1236.01,1059.44,0.0,0.0,,0.0,0.0,0.0,0.0,,0.0,117.91,89.43,0.0,0.0,0.0,0.0,0.0,0.0,,0.0,Gas Plant Acid Gas Injection,01-32-061-22W4M,2018-03-01,117.91,89.43,0.0,0.0,20.62,0.0,0.0,0.0,0.0,0.0,0.0,0.0,0.0,0.0,0.0,0.0,0.0,0.0,0.0,0.0,0.0,0.0,0.0,0.0,0.0,0.0,0.0,0.0,,,,,,,,,,,,,,,,,,
ABGP0001331,Suspended,ALTAGAS ACADIA,GP,Acadia Valley,ALTAGAS LTD.,,100.0% - ALTAGAS LTD.,1/1/1979,,,51.21041,110.16472,12006.99,10064.68,,0.0,0.0,0.0,0.0,755.14,,0.0,,8475.52,8475.52,0.0,0.0,,0.0,0.0,0.0,0.0,,0.0,0.35,0.35,0.0,0.0,0.0,0.0,0.0,0.0,,0.0,Gas Plant Sweet,13-12-026-02W4M,2011-06-01,0.35,0.35,0.0,0.0,0.0,0.0,0.0,0.0,0.0,0.0,0.0,0.0,0.0,0.0,0.0,0.0,0.0,0.0,0.0,0.0,0.0,0.0,0.0,0.0,0.0,0.0,0.0,0.0,,,,,,,,,,,,,,,,,,
ABGP0110241,Suspended,ALTAGAS ACADIA WEST GAS PLANT,GP,Acadia West,ALTAGAS LTD.,,100.0% - ALTAGAS LTD.,,,,51.21424,110.33931,4999.85,4998.44,,0.0,0.0,0.0,0.0,0.63,,0.0,,2436.71,2189.51,,,,,,,,,,340.73,233.99,0.0,0.0,0.0,0.0,0.47,0.0,,0.0,Gas Plant Sweet,02-15-026-03W4M,2016-07-01,340.73,233.99,0.0,0.57,93.75,0.0,0.0,0.0,0.0,0.0,0.0,0.0,0.0,0.0,0.0,0.0,0.47,0.0,0.0,0.0,0.0,0.0,0.0,0.0,0.0,0.0,0.0,0.0,,,,,,,,,,,,,,,,,,
ABGP0001628,Active,ACHESON 05-02-052-26W4 GAS PLANT,GP,Acheson,TIDEWATER MIDSTREAM AND INFRASTRUCTURE LTD.,,100.0% - TIDEWATER MIDSTREAM AND INFRASTRUCTURE LTD.,1/1/1982,,,53.54673,113.73491,33548.93,27510.12,,0.0,3788.31,0.0,0.0,0.0,,0.0,,33548.93,22954.53,18878.61,0.0,,0.0,0.0,0.0,6292.87,,0.0,3236.94,2251.78,0.0,0.0,0.0,0.0,0.0,320.12,,0.0,Gas Plant Sulphur Recovery,05-02-053-26W4M,2021-06-01,3236.94,2251.78,105.12,471.22,283.81,52.97,12.01,0.0,0.0,0.0,0.0,0.0,0.0,0.0,0.0,0.0,0.0,320.12,0.0,0.0,0.0,0.0,0.0,0.0,0.0,0.0,0.0,0.0,,,,,,,,,,,,,,,,,,
ABGP0088516,Active,ACL NGL L.P. SOUTH 9-14-30-27 PLANT,GP,Acl Ngl L.P. South,EMBER RESOURCES INC.,,100.0% - EMBER RESOURCES INC.,1/1/2006,,,51.57064,113.68812,9252.44,9075.87,,0.0,0.0,0.0,0.0,0.0,,161.73,,8828.67,6180.07,0.0,0.0,,0.0,0.0,0.0,0.0,,0.0,3512.87,3291.68,0.0,0.0,0.0,0.0,0.0,0.0,,0.0,Gas Plant Sweet,09-14-030-27W4M,2021-06-01,3512.87,3291.68,0.0,0.0,221.89,0.0,0.0,0.0,0.0,0.0,0.0,0.0,0.0,0.0,0.0,0.0,0.0,0.0,0.0,0.0,0.0,0.0,0.0,0.0,0.0,0.0,0.0,0.0,,,,,,,,,,,,,,,,,,
ABGP0087651,Suspended,ACL NGL LPT 8-28 REFRIDGE PLANT,GP,Acl Ngl Lpt Refridge Plant,EMBER RESOURCES INC.,,100.0% - EMBER RESOURCES INC.,1/1/2005,,,51.77093,113.62210,40082.14,,,,,,,,,,,30017.46,28251.73,0.0,0.0,,0.0,0.0,0.0,0.0,,0.0,11123.88,10442.43,0.0,0.0,0.0,0.0,0.0,0.0,,0.0,Gas Plant Sweet,08-28-032-26W4M,2018-06-01,11123.88,10442.43,0.0,0.0,661.21,0.0,0.0,0.0,0.0,0.0,0.0,0.0,0.0,0.0,0.0,0.0,0.0,0.0,0.0,0.0,0.0,0.0,0.0,0.0,0.0,0.0,0.0,0.0,,,,,,,,,,,,,,,,,,
ABGP0086745,Active,ACL NGL STEWART PLANT 7-7-32-27,GP,Acl Ngl Stewart,EMBER RESOURCES INC.,,100.0% - EMBER RESOURCES INC.,1/1/2005,,,51.72752,113.81689,17657.33,16597.89,,,,,,,,37.76,,19776.21,19776.21,0.0,0.0,,0.0,0.0,0.0,0.0,,0.0,5864.82,5614.8,0.0,0.0,0.0,0.0,0.36,26.6,,0.0,Gas Plant Sweet,07-07-032-27W4M,2021-06-01,5864.82,5614.8,0.0,33.67,229.31,0.0,0.0,0.0,0.0,0.0,0.0,0.0,0.0,0.0,0.0,0.0,0.36,26.6,0.0,0.0,0.0,0.0,0.0,0.0,0.0,0.0,0.0,0.0,,,,,,,,,,,,,,,,,,
ABGP0001756,Suspended,AEC WEST HYTHE 14-18,GP,Aec West Hythe,ENCANA WESTERN RESOURCES LTD.,,100.0% - VERESEN MIDSTREAM GENERAL PARTNER INC.,,,,55.41237,119.83645,336937.19,312146.3,,0.0,0.0,0.0,0.0,1903.59,,6083.95,463.85,,,,,,,,,,,,1996.37,2096.11,0.0,0.0,0.0,0.0,0.0,0.0,,0.0,Gas Plant Sweet,11-18-074-12W6M,2000-02-01,1996.37,2096.11,0.0,0.0,0.0,0.0,0.0,0.0,0.0,0.0,0.0,0.0,0.0,0.0,0.0,0.0,0.0,0.0,0.0,0.0,0.0,0.0,0.0,0.0,0.0,0.0,0.0,0.0,,,,,,,,,,,,,,,,,,
BCGP0000559,Cancelled,WESTCOAST AITKENCREEK D-044-L/094-A-13 005,GP,Aitken Creek Gas Storage,WESTCOAST ENERGY INC.,,100.0% - WESTCOAST ENERGY INC.,,,,56.95407,121.92022,82035.96,78045.4,,,,,,,,,0.34,98881.05,98881.05,,,,,,,,,,10559.54,10003.73,0.0,0.0,0.0,0.0,0.0,0.0,,0.0,,D-044-L 094-A-13,2021-01-01,10559.54,10003.73,0.0,0.0,0.0,0.0,0.0,0.0,0.0,0.0,0.0,0.0,0.0,0.0,0.0,0.0,0.0,0.0,0.0,0.0,0.0,0.0,0.0,0.0,0.0,0.0,0.0,0.0,,,,,,,,,,,,,,,,,,
ABGP0001972,Abandoned,CONOCO AKUINU,GP,Akuinu River West,PARAMOUNT RESOURCES LTD.,,100.0% - PARAMOUNT RESOURCES LTD.,1/1/1997,,,54.65245,114.52788,19917.47,,,,,,,,,,,14125.86,0.0,0.0,0.0,,0.0,0.0,0.0,0.0,,0.0,689.09,386.52,0.0,0.0,0.0,0.0,0.06,0.0,,0.0,Gas Plant Acid Gas Flaring < 1 T/d Sulphur,05-27-065-04W5M,2012-03-01,689.09,386.52,0.0,9.91,257.57,1.37,0.0,0.0,0.0,0.0,0.0,0.0,0.0,0.0,0.0,0.0,0.06,0.0,0.0,0.0,0.0,0.0,0.0,0.0,0.0,0.0,0.0,0.0,,,,,,,,,,,,,,,,,,
ABGP0082962,Suspended,ALBERS 8-23-41-7W4 GAS PLANT,GP,Albers,OVINTIV CANADA ULC,,100.0% - SANLING ENERGY LTD.,,,,52.54129,110.89575,9948.14,9711.53,,0.0,0.0,0.0,0.0,8.18,,0.0,0.0,,,,,,,,,,,,3.29,1.34,0.0,0.0,0.0,0.0,0.0,0.0,,0.0,Gas Plant Sweet,08-23-041-07W4M,2008-02-01,3.29,1.34,0.0,0.0,1.95,0.0,0.0,0.0,0.0,0.0,0.0,0.0,0.0,0.0,0.0,0.0,0.0,0.0,0.0,0.0,0.0,0.0,0.0,0.0,0.0,0.0,0.0,0.0,,,,,,,,,,,,,,,,,,
ABGP0001651,Active,ALDER 10-9-45-8W5,GP,Alder Flats,CENOVUS ENERGY INC.,,9.0% - TAQA NORTH LTD.; 20.0% - BELLATRIX EXPLORATION LTD.; 70.0% - CENOVUS ENERGY INC.,1/1/1991,,,52.86763,115.09820,82989.46,80234.91,,0.0,0.0,0.0,0.0,1264.87,,2592.66,,82989.46,79987.71,0.0,509.72,,509.72,509.72,509.72,2108.11,,0.0,51768.35,49553.18,0.0,0.0,0.0,0.0,815.56,1088.96,,0.0,Gas Plant Sweet,10-09-045-08W5M,2021-06-01,51768.35,49553.18,0.0,2474.26,622.01,1.06,0.0,0.0,0.0,0.0,0.0,0.0,0.0,0.0,0.0,0.0,815.56,1088.96,0.0,0.0,0.0,0.0,0.0,0.0,0.0,0.0,0.0,0.0,,,,,,,,,,,,,,,,,,
ABGP0138158,Active,CENOVUS ALDERSON,GP,Alderson,TORXEN ENERGY LTD.,,100.0% - TORXEN ENERGY LTD.,1/1/1979,,,50.31553,111.96634,6003.49,5473.77,,,,,,,,,,8828.67,8828.67,7551.44,,,,,,,,,3699.8,3430.23,0.0,0.0,0.0,0.0,0.0,0.0,,0.0,Gas Plant Acid Gas Flaring < 1 T/d Sulphur,06-02-016-15W4M,2021-06-01,3699.8,3430.23,0.0,0.0,137.73,158.09,0.0,0.0,0.0,0.0,0.0,0.0,0.0,0.0,0.0,0.0,0.0,0.0,0.0,0.0,0.0,0.0,0.0,0.0,0.0,0.0,0.0,0.0,,,,,,,,,,,,,,,,,,
ABGP0077266,Suspended,ALDERSON 13-21-015-11W4 GAS PLANT,GP,Alderson East,TORXEN ENERGY LTD.,,100.0% - OVINTIV CANADA ULC,1/1/1970,,,50.27893,111.46795,32429.45,32312.92,,0.0,0.0,0.0,0.0,28.95,,0.0,0.0,13207.68,13207.68,0.0,0.0,,0.0,0.0,0.0,0.0,,0.0,6672.59,6429.62,0.0,0.0,0.0,0.0,0.0,0.0,,0.0,Gas Plant Sweet,13-21-015-11W4M,2009-04-01,6672.59,6429.62,0.0,0.0,186.81,0.0,0.0,0.0,0.0,0.0,0.0,0.0,0.0,0.0,0.0,0.0,0.0,0.0,0.0,0.0,0.0,0.0,0.0,0.0,0.0,0.0,0.0,0.0,,,,,,,,,,,,,,,,,,
ABGP0001256,Active,PANCDN ALDERSON,GP,Alderson West,TORXEN ENERGY LTD.,,100.0% - TORXEN ENERGY LTD.,1/1/1976,,,50.29005,112.00649,36727.25,,,,,,,,,,,21188.8,21188.8,0.0,0.0,,0.0,0.0,0.0,157.32,,0.0,11758.72,11530.0,0.0,0.0,0.0,0.0,0.0,204.83,,0.0,Gas Plant Sweet,10-28-015-15W4M,2021-06-01,11758.72,11530.0,0.0,271.69,0.0,0.0,0.0,0.0,0.0,0.0,0.0,0.0,0.0,0.0,0.0,0.0,0.0,204.83,0.0,0.0,0.0,0.0,0.0,0.0,0.0,0.0,0.0,0.0,,,,,,,,,,,,,,,,,,
ABGP0134471,Active,SPARTAN ALEXANDER GAS PLANT,GP,Alexander,VERMILION ENERGY INC.,,,,,,53.81987,113.85883,4000.44,4000.44,,0.0,0.0,0.0,0.0,0.0,,0.0,,,,,,,,,,,,,174.1,83.58,0.0,0.0,0.0,0.0,0.0,0.0,,0.0,Gas Plant Acid Gas Flaring < 1 T/d Sulphur,03-07-056-26W4M,2021-06-01,174.1,83.58,0.0,6.0,84.52,0.0,0.0,0.0,0.0,0.0,0.0,0.0,0.0,0.0,0.0,0.0,0.0,0.0,0.0,0.0,0.0,0.0,0.0,0.0,0.0,0.0,0.0,0.0,,,,,,,,,,,,,,,,,,
ABGP0001737,Active,APACHE NEVIS 6-24,GP,Alix,EMBER RESOURCES INC.,,100.0% - EMBER RESOURCES INC.,,,,52.36675,113.18653,14832.16,,,,,,,,,,,15891.6,15891.6,0.0,0.0,,0.0,0.0,0.0,0.0,,0.0,8968.75,8314.72,0.0,0.0,0.0,0.0,0.0,0.0,,0.0,Gas Plant Sweet,06-24-039-23W4M,2021-06-01,8968.75,8314.72,0.0,0.0,430.96,0.0,0.0,0.0,0.0,0.0,0.0,0.0,0.0,0.0,0.0,0.0,0.0,0.0,0.0,0.0,0.0,0.0,0.0,0.0,0.0,0.0,0.0,0.0,,,,,,,,,,,,,,,,,,
ABGP0135948,Active,LRE EDSON 00/06-16-054-18W5 GP,GP,Alliance,LONG RUN EXPLORATION LTD.,,100.0% - LONG RUN EXPLORATION LTD.,,,,53.66297,116.59653,30017.46,29664.32,,0.0,0.0,0.0,0.0,0.0,,629.29,,,,,,,,,,,,,13054.01,11993.32,0.0,0.0,0.0,0.0,0.0,0.0,,0.0,Gas Plant Sweet,06-16-054-18W5M,2018-10-01,13054.01,11993.32,0.0,0.0,20.39,0.0,0.0,0.0,0.0,0.0,0.0,0.0,0.0,0.0,0.0,0.0,0.0,0.0,0.0,0.0,0.0,0.0,0.0,0.0,0.0,0.0,0.0,0.0,,,,,,,,,,,,,,,,,,
ABGP0001060,Active,SOLEX HARMATTAN-ELKTON,GP,Alta Gas Harmattan,ALTAGAS LTD.,,100.0% - ALTAGAS LTD.,1/1/1960,,,51.68774,114.47718,490789.05,396371.77,,24681.89,0.0,15580.52,8663.39,11018.82,,12005.54,53.57,490789.05,401185.16,0.0,21620.41,,15580.52,8663.39,11018.82,0.0,,55.1,318285.28,267996.15,0.0,0.0,0.0,0.0,0.0,24939.08,,7.86,Gas Plant Sulphur Recovery,09-27-031-04W5M,2021-06-01,318285.28,267996.15,0.0,40580.55,9196.41,642.02,0.0,0.0,0.0,0.0,0.0,0.0,0.0,0.0,0.0,0.0,0.0,24939.08,7.86,0.0,0.0,0.0,0.0,0.0,0.0,0.0,0.0,0.0,,,,,,,,,,,,,,,,,,
ABGP0001099,Suspended,* ALTANA CAROLINE,GP,Altana Caroline,ALTANA EXPLORATION COMPANY,,100.0% - ALTANA EXPLORATION COMPANY,,,,51.96412,114.73085,,,,,,,,,,,,,,,,,,,,,,,9665.74,8460.22,0.0,0.0,0.0,0.0,0.0,0.0,,0.0,Gas Plant Acid Gas Flaring > 1 T/d Sulphur,12-36-034-06W5M,1993-04-01,9665.74,8460.22,0.0,751.14,347.14,0.0,107.24,0.0,0.0,0.0,0.0,0.0,0.0,0.0,0.0,0.0,0.0,0.0,0.0,0.0,0.0,0.0,0.0,0.0,0.0,0.0,0.0,0.0,,,,,,,,,,,,,,,,,,
BCGP0007834,Active,PACIFIC CANBRIAM ALTARES B-024-H/094-B-08 001,GP,Altares,PACIFIC CANBRIAM ENERGY LIMITED,,,4/1/2011,,,56.35410,122.04526,50005.56,47533.54,,,,672.71,590.9,465.67,,,,49970.25,49970.25,0.0,0.0,,0.0,0.0,2013.72,1258.57,,0.0,48168.02,45489.88,6.17,0.0,353.43,386.28,610.14,0.0,,0.0,,B-024-H 094-B-08,2021-04-01,48168.02,45489.88,0.0,0.0,0.0,0.0,0.0,0.0,0.0,6.17,0.0,353.43,0.0,386.28,0.0,0.0,610.14,0.0,0.0,0.0,0.0,0.0,0.0,0.0,0.0,0.0,0.0,0.0,,,,,,,,,,,,,,,,,,
ABGP0001250,Suspended,* AMERADA GARRINGTON,GP,Amerada Garrington,177293 CANADA LTD.,,100.0% - 177293 CANADA LTD.,,,,51.92790,114.38855,,,,,,,,,,,,,,,,,,,,,,,941.76,843.68,0.0,0.0,0.0,0.0,0.0,0.0,,0.0,Gas Plant Sweet,02-20-034-03W5M,1993-05-01,941.76,843.68,0.0,90.22,29.73,0.0,0.0,0.0,0.0,0.0,0.0,0.0,0.0,0.0,0.0,0.0,0.0,0.0,0.0,0.0,0.0,0.0,0.0,0.0,0.0,0.0,0.0,0.0,,,,,,,,,,,,,,,,,,
ABGP0001297,Abandoned,PENN WEST AMISK,GP,Amisk,CLEO ENERGY CORP.,,100.0% - CLEO ENERGY CORP.,,,,52.53765,111.06370,9958.73,,,,,,,,,,,,,,,,,,,,,,747.53,599.78,0.0,0.0,0.0,0.0,0.0,0.0,,0.0,Gas Plant Acid Gas Flaring < 1 T/d Sulphur,01-22-041-08W4M,1995-10-01,747.53,599.78,0.0,3.19,88.63,0.0,55.93,0.0,0.0,0.0,0.0,0.0,0.0,0.0,0.0,0.0,0.0,0.0,0.0,0.0,0.0,0.0,0.0,0.0,0.0,0.0,0.0,0.0,,,,,,,,,,,,,,,,,,
ABGP0001077,Suspended,* AMOCO GILBY SOUTH,GP,Amoco Gilby South,BP CANADA ENERGY GROUP ULC,,100.0% - BP CANADA ENERGY GROUP ULC,,,,52.47053,114.31681,,,,,,,,,,,,,,,,,,,,,,,2367.45,2200.45,0.0,0.0,0.0,0.0,0.0,0.0,,0.0,Gas Plant Acid Gas Flaring > 1 T/d Sulphur,08-26-040-03W5M,1991-10-01,2367.45,2200.45,0.0,29.62,95.12,48.76,0.0,0.0,0.0,0.0,0.0,0.0,0.0,0.0,0.0,0.0,0.0,0.0,0.0,0.0,0.0,0.0,0.0,0.0,0.0,0.0,0.0,0.0,,,,,,,,,,,,,,,,,,
ABGP0001398,Suspended,ANADARKO BEAVERHILL LAKE,GP,Anadarko Beaverhill Lake,CANADIAN NATURAL RESOURCES LIMITED,,100.0% - CANADIAN NATURAL RESOURCES LIMITED,,,,53.48511,112.62836,,,,,,,,,,,,,,,,,,,,,,,414.32,393.13,0.0,0.0,0.0,0.0,0.0,0.0,,0.0,Gas Plant Sweet,04-17-052-18W4M,1993-12-01,414.32,393.13,0.0,0.0,39.19,0.0,0.0,0.0,0.0,0.0,0.0,0.0,0.0,0.0,0.0,0.0,0.0,0.0,0.0,0.0,0.0,0.0,0.0,0.0,0.0,0.0,0.0,0.0,,,,,,,,,,,,,,,,,,
ABGP0117818,Active,ANDERSON GP 00/01-09-051-24W5M,GP,Anderson,TOURMALINE OIL CORP.,,100.0% - TOURMALINE OIL CORP.,,,,53.38309,117.46844,59999.61,24780.3,,0.0,0.0,0.0,0.0,0.0,,185.64,,,,,,,,,,,,,14436.63,13212.27,0.0,0.0,0.0,0.0,109.2,185.35,,0.0,Gas Plant Sweet,01-09-051-24W5M,2021-06-01,14436.63,13212.27,0.0,368.69,575.98,12.24,0.0,0.0,0.0,0.0,0.0,0.0,0.0,0.0,0.0,0.0,109.2,185.35,0.0,0.0,0.0,0.0,0.0,0.0,0.0,0.0,0.0,0.0,,,,,,,,,,,,,,,,,,
ABGP0001865,Abandoned,ANDERSON WOKING,GP,Anderson Woking,CANADIAN NATURAL RESOURCES LIMITED,,100.0% - DEVON CANADA CORPORATION,,,,55.48864,118.54674,4767.48,,,,,,,,,,,,,,,,,,,,,,766.78,692.85,0.0,0.0,0.0,0.0,0.0,0.0,,0.0,Gas Plant Sweet,16-09-075-04W6M,1996-01-01,766.78,692.85,0.0,0.0,45.11,0.0,28.82,0.0,0.0,0.0,0.0,0.0,0.0,0.0,0.0,0.0,0.0,0.0,0.0,0.0,0.0,0.0,0.0,0.0,0.0,0.0,0.0,0.0,,,,,,,,,,,,,,,,,,
ABGP0001759,Active,ANSELL 7-27-51-19W5,GP,Ansell,CANADIAN NATURAL RESOURCES LIMITED,,100.0% - CANADIAN NATURAL RESOURCES LIMITED,1/1/1988,,,53.43031,116.71311,24720.26,23639.64,,0.0,0.0,0.0,0.0,440.5,,723.68,,19423.06,18363.62,0.0,0.0,,0.0,0.0,0.0,818.07,,0.0,11681.97,10933.3,0.0,0.0,0.0,0.0,87.64,201.9,,0.0,Gas Plant Sweet,07-27-051-19W5M,2021-06-01,11681.97,10933.3,0.0,372.57,43.79,0.0,0.0,0.0,0.0,0.0,0.0,0.0,0.0,0.0,0.0,0.0,87.64,201.9,0.0,0.0,0.0,0.0,0.0,0.0,0.0,0.0,0.0,0.0,,,,,,,,,,,,,,,,,,
ABGP0138891,Active,ANSELL 12-31 GAS PLANT,GP,Ansell 12-31,BONAVISTA ENERGY CORPORATION,,100.0% - BONAVISTA ENERGY CORPORATION,1/1/2014,,,53.36140,116.48494,100293.64,99763.92,,0.0,0.0,0.0,0.0,471.97,,704.8,,64978.98,98881.05,,,,,,,188.79,,,52824.14,51131.39,0.0,0.0,0.0,0.0,176.35,357.81,,0.0,Gas Plant Sweet,12-31-050-17W5M,2021-06-01,52824.14,51131.39,0.0,666.62,1078.39,0.0,0.0,0.0,0.0,0.0,0.0,0.0,0.0,0.0,0.0,0.0,176.35,357.81,0.0,0.0,0.0,0.0,0.0,0.0,0.0,0.0,0.0,0.0,,,,,,,,,,,,,,,,,,
ABGP0120365,Active,STURGEON LAKE GAS PLANT,GP,Ante Creek,ARC RESOURCES LTD.,,100.0% - ARC RESOURCES LTD.,,,,54.91060,117.69720,58209.16,55761.85,,0.0,0.0,0.0,0.0,0.0,,862.75,,19952.78,18363.62,,,,,,5.66,524.2,,,13511.39,13196.97,0.0,0.0,0.0,0.0,0.0,173.83,,0.0,Gas Plant Acid Gas Flaring < 1 T/d Sulphur,02-26-068-25W5M,2021-06-01,13511.39,13196.97,0.0,235.55,330.19,32.25,0.0,0.0,0.0,0.0,0.0,0.0,0.0,0.0,0.0,0.0,0.0,173.83,0.0,0.0,0.0,0.0,0.0,0.0,0.0,0.0,0.0,0.0,,,,,,,,,,,,,,,,,,
ABGP0120344,Active,10-7 GAS PROCESSING PLANT,GP,Ante Creek North,ARC RESOURCES LTD.,,100.0% - ARC RESOURCES LTD.,1/1/2012,,,54.78675,117.64635,40142.18,28714.35,,,,,,1122.65,,1281.86,,29982.15,22954.53,4090.37,,,,,,1132.72,,,36624.48,32823.1,0.0,0.0,0.0,0.0,0.0,851.66,,0.0,Gas Plant Sweet,10-07-067-24W5M,2021-06-01,36624.48,32823.1,0.0,1164.09,1412.94,135.14,0.0,0.0,0.0,0.0,0.0,0.0,0.0,0.0,0.0,0.0,0.0,851.66,0.0,0.0,0.0,0.0,0.0,0.0,0.0,0.0,0.0,0.0,,,,,,,,,,,,,,,,,,
ABGP0080972,Active,ANTE CREEK GAS PLANT 10-36-065-25W5M,GP,Ante Creek South,ARC RESOURCES LTD.,,100.0% - ARC RESOURCES LTD.,1/1/2004,,,54.67052,117.64081,25073.41,22636.7,,0.0,0.0,0.0,0.0,0.0,,925.05,,10461.26,9534.96,12585.74,0.0,,0.0,0.0,0.0,314.64,,0.0,21521.81,19265.33,0.0,0.0,0.0,0.0,0.0,687.68,,0.0,Gas Plant Sweet,10-36-065-25W5M,2021-06-01,21521.81,19265.33,0.0,936.31,530.43,42.61,0.0,0.0,0.0,0.0,0.0,0.0,0.0,0.0,0.0,0.0,0.0,687.68,0.0,0.0,0.0,0.0,0.0,0.0,0.0,0.0,0.0,0.0,,,,,,,,,,,,,,,,,,
ABGP0001670,Abandoned,ALTAGAS ANTELOPE,GP,Antelope,CAMPUS ENERGY PARTNERS OPERATIONS INC.,,100.0% - ALTAGAS LTD.,,,,51.57441,110.00797,8475.52,,,,,,,,,,,,,,,,,,,,,,2379.15,2227.06,0.0,0.0,0.0,0.0,0.0,0.0,,0.0,Gas Plant Acid Gas Flaring < 1 T/d Sulphur,16-13-030-01W4M,2003-04-01,2379.15,2227.06,0.0,11.89,125.13,8.83,0.0,0.0,0.0,0.0,0.0,0.0,0.0,0.0,0.0,0.0,0.0,0.0,0.0,0.0,0.0,0.0,0.0,0.0,0.0,0.0,0.0,0.0,,,,,,,,,,,,,,,,,,
ABGP0001172,Active,STAR MIKWAN,GP,Arc Mikwan,SUN CENTURY PETROLEUM CORPORATION,,18.6% - CANSEARCH RESOURCES LTD.; 5.4% - SIGNALTA RESOURCES LIMITED; 3.6% - CONOCOPHILLIPS CANADA RESOURCES CORP.; 1.5% - ADVANTAGE ENERGY LTD.; 9.1% - PENGROWTH ENERGY CORPORATION; 54.0% - SUN CENTURY PETROLEUM CORPORATION,1/1/1971,,,52.16661,113.25196,7239.51,6709.79,,0.0,0.0,0.0,0.0,0.0,,188.79,,14000.14,14000.14,0.0,0.0,,0.0,0.0,0.0,100.69,,0.0,2918.99,2636.47,0.0,0.0,0.0,0.0,1.32,68.36,,0.0,Gas Plant Sweet,10-08-037-23W4M,2021-06-01,2918.99,2636.47,0.0,92.52,251.32,8.59,0.0,0.0,0.0,0.0,0.0,0.0,0.0,0.0,0.0,0.0,1.32,68.36,0.0,0.0,0.0,0.0,0.0,0.0,0.0,0.0,0.0,0.0,,,,,,,,,,,,,,,,,,
BCGP0018270,Active,ARCRES DAWSON CREEK 13-07-080-14 002,GP,Arcres,ARC RESOURCES LTD.,,,6/14/2017,,,55.92523,120.18940,210016.3,184342.54,,,,,,,,,,,,,,,,,,,,,213122.93,191593.82,455.21,0.0,2146.98,2128.25,5821.6,0.0,,0.0,,13-07-080-14W6M,2021-04-01,213122.93,191593.82,0.0,0.0,0.0,0.0,0.0,0.0,0.0,455.21,0.0,2146.98,0.0,2128.25,0.0,0.0,5821.6,0.0,0.0,0.0,0.0,0.0,0.0,0.0,0.0,0.0,0.0,0.0,,,,,,,,,,,,,,,,,,
ABGP0001425,Active,PENGROWTH MKWAN 102/09-21-038-23W4,GP,Ardley,ALPHABOW ENERGY LTD.,,100.0% - ALPHABOW ENERGY LTD.,,,,52.28312,113.22236,635.66,600.35,,0.0,0.0,0.0,0.0,0.0,,39.65,,1130.07,1130.07,251.71,0.0,,0.0,0.0,0.0,12.59,,0.0,224.84,175.04,0.0,0.0,0.0,0.0,0.0,4.85,,0.0,Gas Plant Sweet,09-21-038-23W4M,2021-06-01,224.84,175.04,0.0,6.47,31.9,0.0,0.0,0.0,0.0,0.0,0.0,0.0,0.0,0.0,0.0,0.0,0.0,4.85,0.0,0.0,0.0,0.0,0.0,0.0,0.0,0.0,0.0,0.0,,,,,,,,,,,,,,,,,,
ABGP0001480,Active,EYREMORE 1-18-17-18W4,GP,Armada,CANADIAN NATURAL RESOURCES LIMITED,,100.0% - CANADIAN NATURAL RESOURCES LIMITED,,,,50.42844,112.45886,30017.46,29809.11,,0.0,0.0,0.0,0.0,0.0,,81.18,0.0,31076.9,31076.9,,,,,,,201.37,,,1462.62,1346.08,0.0,0.0,0.0,0.0,0.0,5.54,,0.0,Gas Plant Sweet,01-18-017-18W4M,2021-06-01,1462.62,1346.08,0.0,7.06,50.15,0.0,0.0,0.0,0.0,0.0,0.0,0.0,0.0,0.0,0.0,0.0,0.0,5.54,0.0,0.0,0.0,0.0,0.0,0.0,0.0,0.0,0.0,0.0,,,,,,,,,,,,,,,,,,
ABGP0001849,Active,ROCHESTER 11-9-62-24W4,GP,Armstrong Lake,CANADIAN NATURAL RESOURCES LIMITED,,100.0% - CANADIAN NATURAL RESOURCES LIMITED,1/1/1996,,,54.35026,113.54101,3224.23,14125.86,,,,,,3.15,,,,1589.16,1589.16,0.0,0.0,,0.0,0.0,0.0,0.0,,0.0,575.98,534.55,0.0,0.0,0.0,0.0,0.76,0.0,,0.0,Gas Plant Sweet,11-09-062-24W4M,2021-06-01,575.98,534.55,0.0,0.82,39.55,0.0,0.0,0.0,0.0,0.0,0.0,0.0,0.0,0.0,0.0,0.0,0.76,0.0,0.0,0.0,0.0,0.0,0.0,0.0,0.0,0.0,0.0,0.0,,,,,,,,,,,,,,,,,,
ABGP0001373,Abandoned,ASCOT WATELET,GP,Ascot Watelet,OBSIDIAN ENERGY LTD.,,,,,,53.05241,113.69257,1100.05,,,,,,,,,,,,,,,,,,,,,,23.9,23.9,0.0,0.0,0.0,0.0,0.0,0.0,,0.0,Gas Plant Sweet,07-14-047-26W4M,2002-11-01,23.9,23.9,0.0,0.0,0.0,0.0,0.0,0.0,0.0,0.0,0.0,0.0,0.0,0.0,0.0,0.0,0.0,0.0,0.0,0.0,0.0,0.0,0.0,0.0,0.0,0.0,0.0,0.0,,,,,,,,,,,,,,,,,,
ABGP0001846,Suspended,CONOCO ATLEE-BUFFALO 09-13,GP,Atlee Buffalo,WEST LAKE ENERGY CORP.,,100.0% - WEST LAKE ENERGY CORP.,1/1/2000,,,50.78517,110.83855,9499.64,9499.64,,,,,,1.26,,,,4590.91,4590.91,0.0,0.0,,0.0,0.0,0.0,12.59,,0.0,2513.77,2264.3,0.0,0.0,0.0,0.0,0.0,0.0,,0.0,Gas Plant Sweet,09-13-021-07W4M,2011-02-01,2513.77,2264.3,0.0,0.0,96.23,0.0,0.0,0.0,0.0,0.0,0.0,0.0,0.0,0.0,0.0,0.0,0.0,0.0,0.0,0.0,0.0,0.0,0.0,0.0,0.0,0.0,0.0,0.0,,,,,,,,,,,,,,,,,,
ABGP0001620,Active,PANCDN BADGER,GP,Badger,RAZOR ENERGY CORP.,,100.0% - RAZOR ENERGY CORP.,,,,50.36639,112.33842,2274.26,1447.9,,,,,,0.0,,100.69,,918.18,776.92,1258.57,0.0,,0.0,0.0,0.0,283.18,,0.0,425.66,391.52,0.0,0.0,0.0,0.0,0.0,5.68,,0.0,Gas Plant Acid Gas Flaring < 1 T/d Sulphur,13-19-016-17W4M,2021-06-01,425.66,391.52,0.0,12.6,10.12,0.0,0.0,0.0,0.0,0.0,0.0,0.0,0.0,0.0,0.0,0.0,0.0,5.68,0.0,0.0,0.0,0.0,0.0,0.0,0.0,0.0,0.0,0.0,,,,,,,,,,,,,,,,,,
ABGP0001734,Suspended,EYREMORE 16-7-17-18W4,GP,Badger Eyemoor,SANLING ENERGY LTD.,,100.0% - SANLING ENERGY LTD.,,,,50.42464,112.45886,6356.64,,,,,,,,,,,9181.81,8581.46,0.0,0.0,,0.0,0.0,0.0,0.0,,0.0,947.34,875.23,0.0,0.0,0.0,0.0,0.0,0.0,,0.0,Gas Plant Sulphur Recovery,16-07-017-18W4M,2021-03-01,947.34,875.23,0.0,0.0,54.0,10.82,0.0,0.0,0.0,0.0,0.0,0.0,0.0,0.0,0.0,0.0,0.0,0.0,0.0,0.0,0.0,0.0,0.0,0.0,0.0,0.0,0.0,0.0,,,,,,,,,,,,,,,,,,
ABGP0115356,Active,BANSHEE 15-12 GAS PLANT,GP,Banshee,TOURMALINE OIL CORP.,,100.0% - TOURMALINE OIL CORP.,1/1/2011,,,53.30685,116.93577,135007.95,135007.95,,0.0,0.0,0.0,0.0,2962.68,,56.01,,120069.85,116538.39,,,,,,,,,,130103.34,126254.39,0.0,0.0,0.0,0.0,1044.34,301.64,,0.0,Gas Plant Sweet,15-12-050-21W5M,2021-06-01,130103.34,126254.39,0.0,1628.83,2865.43,10.95,0.0,0.0,0.0,0.0,0.0,0.0,0.0,0.0,0.0,0.0,1044.34,301.64,0.0,0.0,0.0,0.0,0.0,0.0,0.0,0.0,0.0,0.0,,,,,,,,,,,,,,,,,,
ABGP0001114,Active,CAMPUS BANTRY,GP,Bantry,CAMPUS ENERGY PARTNERS OPERATIONS INC.,,100.0% - CAMPUS ENERGY PARTNERS OPERATIONS INC.,,,,50.47198,111.60535,25002.78,22732.05,,0.0,0.0,178.72,229.69,125.23,,0.0,,25002.78,22732.05,0.0,0.0,,178.72,229.69,125.23,0.0,,0.0,9298.7,8002.42,0.0,0.0,11.75,36.73,106.43,0.0,,0.0,Gas Plant Acid Gas Injection,04-33-017-12W4M,2021-06-01,9298.7,8002.42,714.53,190.35,581.99,34.49,0.0,0.0,0.0,0.0,0.0,11.75,0.0,36.73,0.0,0.0,106.43,0.0,0.0,0.0,0.0,0.0,0.0,0.0,0.0,0.0,0.0,0.0,,,,,,,,,,,,,,,,,,
ABGP0001739,Active,PCR BANTRY NORTH 1-8,GP,Bantry North,TORXEN ENERGY LTD.,,100.0% - TORXEN ENERGY LTD.,,,,50.67574,111.76175,32666.06,32443.58,,0.0,0.0,0.0,0.0,94.39,,0.0,,26486.0,26486.0,0.0,0.0,,0.0,0.0,0.0,125.86,,0.0,3563.96,3636.47,0.0,0.0,0.0,0.0,0.0,33.54,,0.0,Gas Plant Sweet,01-08-020-13W4M,2021-06-01,3563.96,3636.47,0.0,42.38,3.88,5.18,0.0,0.0,0.0,0.0,0.0,0.0,0.0,0.0,0.0,0.0,0.0,33.54,0.0,0.0,0.0,0.0,0.0,0.0,0.0,0.0,0.0,0.0,,,,,,,,,,,,,,,,,,
ABGP0001330,Abandoned,BAPTISTE LAKE 5-28-67-22W4,GP,Baptiste,CANADIAN NATURAL RESOURCES LIMITED,,100.0% - CANADIAN NATURAL RESOURCES LIMITED,,,,54.82580,113.30723,4202.44,,,,,,,,,,,11653.84,11300.69,0.0,0.0,,0.0,0.0,0.0,0.0,,0.0,1747.28,1747.28,0.0,0.0,0.0,0.0,0.0,0.0,,0.0,Gas Plant Sweet,05-28-067-22W4M,2005-08-01,1747.28,1747.28,0.0,0.0,113.01,0.0,0.0,0.0,0.0,0.0,0.0,0.0,0.0,0.0,0.0,0.0,0.0,0.0,0.0,0.0,0.0,0.0,0.0,0.0,0.0,0.0,0.0,0.0,,,,,,,,,,,,,,,,,,
ABGP0001971,Suspended,NORTHROCK BARRHEAD,GP,Barrhead,TAQA NORTH LTD.,,100.0% - TAQA NORTH LTD.,1/1/1995,,,54.12853,114.65509,7592.65,7416.08,,0.0,0.0,0.0,0.0,26.43,,0.0,0.0,812.24,706.29,0.0,0.0,,0.0,0.0,0.0,25.17,,0.0,364.2,356.68,0.0,0.0,0.0,0.0,0.0,0.0,,0.0,Gas Plant Sweet,08-27-059-05W5M,2011-10-01,364.2,356.68,0.0,0.0,0.0,0.0,0.0,0.0,0.0,0.0,0.0,0.0,0.0,0.0,0.0,0.0,0.0,0.0,0.0,0.0,0.0,0.0,0.0,0.0,0.0,0.0,0.0,0.0,,,,,,,,,,,,,,,,,,
ABGP0094322,Active,BASHAW 12-32-41-20W4 GAS PLANT,GP,Bashaw,LONG RUN EXPLORATION LTD.,,100.0% - LONG RUN EXPLORATION LTD.,1/1/2007,,,52.57445,112.85641,10001.11,9605.59,,0.0,0.0,0.0,0.0,62.93,,0.0,,4979.37,4767.48,0.0,0.0,,0.0,0.0,0.0,62.93,,0.0,1017.65,1128.89,0.0,0.0,0.0,0.0,0.0,14.6,,0.0,Gas Plant Sweet,12-32-041-20W4M,2021-06-01,1017.65,1128.89,0.0,17.89,16.36,0.0,0.0,0.0,0.0,0.0,0.0,0.0,0.0,0.0,0.0,0.0,0.0,14.6,0.0,0.0,0.0,0.0,0.0,0.0,0.0,0.0,0.0,0.0,,,,,,,,,,,,,,,,,,
ABGP0001177,Active,PANCDN BASSANO,GP,Bassano Lathom,TORXEN ENERGY LTD.,,100.0% - TORXEN ENERGY LTD.,1/1/1978,,,50.84320,112.46013,54737.73,51206.26,,0.0,0.0,0.0,0.0,31.46,,220.25,0.0,54737.73,51206.26,,,,,,,220.25,,,16629.79,16362.11,0.0,0.0,0.0,0.0,0.0,12.9,,0.0,Gas Plant Sweet,10-05-022-18W4M,2021-06-01,16629.79,16362.11,0.0,15.42,15.77,6.83,0.0,0.0,0.0,0.0,0.0,0.0,0.0,0.0,0.0,0.0,0.0,12.9,0.0,0.0,0.0,0.0,0.0,0.0,0.0,0.0,0.0,0.0,,,,,,,,,,,,,,,,,,
ABGP0001312,Suspended,SAMSON RAINBOW,GP,Basset Lake,SANLING ENERGY LTD.,,100.0% - SANLING ENERGY LTD.,1/1/1979,,,58.36709,118.98728,21365.37,,,,,,,,,,,21365.37,19246.49,75.51,0.0,,0.0,0.0,0.0,0.0,,0.0,1491.87,1401.65,0.0,0.0,0.0,0.0,0.0,0.0,,0.0,Gas Plant Sweet,15-07-108-06W6M,2021-03-01,1491.87,1401.65,0.0,0.0,154.81,0.0,0.0,0.0,0.0,0.0,0.0,0.0,0.0,0.0,0.0,0.0,0.0,0.0,0.0,0.0,0.0,0.0,0.0,0.0,0.0,0.0,0.0,0.0,,,,,,,,,,,,,,,,,,
ABGP0001596,Abandoned,SAMSON RAINBOW LAKE,GP,Basset Lake West,SANLING ENERGY LTD.,,100.0% - SANLING ENERGY LTD.,,,,58.37453,119.04307,4661.54,,,,,,,,,,,,,,,,,,,,,,719.12,695.11,0.0,0.0,0.0,0.0,10.51,0.0,,0.0,Gas Plant Acid Gas Flaring > 1 T/d Sulphur,07-14-108-07W6M,2001-04-01,719.12,695.11,0.0,197.29,114.54,52.97,0.0,0.0,0.0,0.0,0.0,0.0,0.0,0.0,0.0,0.0,10.51,0.0,0.0,0.0,0.0,0.0,0.0,0.0,0.0,0.0,0.0,0.0,,,,,,,,,,,,,,,,,,
ABGP0099238,Abandoned,BATTLE 1-24-45-8 W4,GP,Battle River,CLEO ENERGY CORP.,,100.0% - CLEO ENERGY CORP.,,,,52.88882,111.02290,1977.62,812.24,,3531.56,0.0,0.0,0.0,0.0,,3.15,,1059.44,1059.44,,,,,,,37.76,,,0.0,0.0,0.0,0.0,0.0,0.0,0.0,0.19,,0.0,Gas Plant Sweet,01-24-045-08W4M,2013-06-01,0.0,0.0,0.0,0.0,0.0,0.0,0.0,0.0,0.0,0.0,0.0,0.0,0.0,0.0,0.0,0.0,0.0,0.19,0.0,0.0,0.0,0.0,0.0,0.0,0.0,0.0,0.0,0.0,,,,,,,,,,,,,,,,,,
ABGP0001254,Suspended,PETRO-CAN RICINUS,GP,Bearberry,TAQA NORTH LTD.,,100.0% - TAQA NORTH LTD.,1/1/1991,,,51.87309,114.99057,94420.81,90677.46,,0.0,0.0,0.0,0.0,1843.81,,2035.11,,98881.05,98881.05,0.0,0.0,,0.0,0.0,0.0,1887.86,,0.0,2108.52,1937.13,0.0,0.0,0.0,0.0,14.87,11.08,,0.0,Gas Plant Sweet,05-31-033-07W5M,2016-04-01,2108.52,1937.13,0.0,32.72,28.72,0.0,0.0,0.0,0.0,0.0,0.0,0.0,0.0,0.0,0.0,0.0,14.87,11.08,0.0,0.0,0.0,0.0,0.0,0.0,0.0,0.0,0.0,0.0,,,,,,,,,,,,,,,,,,
ABGP0001508,Suspended,BEAU ALDERSON,GP,Beau Alderson,MURPHY OIL COMPANY LTD.,,100.0% - CANADIAN NATURAL RESOURCES LIMITED,,,,50.51186,111.29054,42377.59,,,,,,,,,,,,,,,,,,,,,,2437.89,2382.09,0.0,0.0,0.0,0.0,0.0,0.0,,0.0,Gas Plant Sweet,16-10-018-10W4M,1997-11-01,2437.89,2382.09,0.0,0.0,159.74,0.0,0.0,0.0,0.0,0.0,0.0,0.0,0.0,0.0,0.0,0.0,0.0,0.0,0.0,0.0,0.0,0.0,0.0,0.0,0.0,0.0,0.0,0.0,,,,,,,,,,,,,,,,,,
ABGP0137047,Active,SPARTAN ALDERFLATS 10-09-045-08W5,GP,Bellatrix 10-09,SPARTAN DELTA CORP.,,60.0% - SPARTAN DELTA CORP.; 35.0% - KEYERA ENERGY LTD.,1/1/2015,,,52.86763,115.09820,257699.92,228800.17,,0.0,15971.3,0.0,0.0,5665.47,,0.0,,110005.17,106014.62,,1406.46,,2558.05,1011.26,500.28,,,,141282.78,128758.55,0.0,0.0,0.0,0.0,1190.32,7019.97,,0.0,Gas Plant Sweet,10-09-045-08W5M,2021-06-01,141282.78,128758.55,0.0,11814.64,1146.43,117.13,0.0,0.0,0.0,0.0,0.0,0.0,0.0,0.0,0.0,0.0,1190.32,7019.97,0.0,0.0,0.0,0.0,0.0,0.0,0.0,0.0,0.0,0.0,,,,,,,,,,,,,,,,,,
ABGP0001645,Suspended,BELLOY 13-16-78-1W6,GP,Belloy,CANADIAN NATURAL RESOURCES LIMITED,,100.0% - CANADIAN NATURAL RESOURCES LIMITED,,,,55.76511,118.10054,29876.2,29487.74,,0.0,0.0,0.0,0.0,232.84,,157.32,,20906.28,19952.78,0.0,0.0,,0.0,0.0,0.0,125.86,,0.0,2346.49,2202.04,0.0,0.0,0.0,0.0,0.0,30.31,,0.0,Gas Plant Sweet,13-16-078-01W6M,2013-08-01,2346.49,2202.04,2.28,38.05,122.8,2.28,0.0,0.0,0.0,0.0,0.0,0.0,0.0,0.0,0.0,0.0,0.0,30.31,0.0,0.0,0.0,0.0,0.0,0.0,0.0,0.0,0.0,0.0,,,,,,,,,,,,,,,,,,
ABGP0001641,Active,BELLOY 16-36-79-3W6,GP,Belloy Northwest,CANADIAN NATURAL RESOURCES LIMITED,,1.5% - ARC RESOURCES LTD.; 3.8% - BARNWELL OF CANADA  LIMITED; 0.6% - CHAIR RESOURCES INC.; 2.9% - PENGROWTH ENERGY CORPORATION; 0.3% - SIGNALTA RESOURCES LIMITED; 4.2% - TAQA NORTH; 86.4% - CANADIAN NATURAL RESOURCES LIMITED,1/1/1980,,,55.89650,118.31707,19998.69,19458.38,,,,,,71.11,,,,9068.81,8619.96,0.0,0.0,,0.0,0.0,0.0,0.0,,0.0,2853.19,2725.0,0.0,0.0,0.0,0.0,4.26,0.0,,0.0,Gas Plant Acid Gas Flaring < 1 T/d Sulphur,16-36-079-03W6M,2021-06-01,2853.19,2725.0,0.0,4.94,127.84,0.0,0.0,0.0,0.0,0.0,0.0,0.0,0.0,0.0,0.0,0.0,4.26,0.0,0.0,0.0,0.0,0.0,0.0,0.0,0.0,0.0,0.0,0.0,,,,,,,,,,,,,,,,,,
ABGP0001280,Active,BELLSHILL-03-28-041-12 W4M,GP,Bellshill Lake,HARVEST OPERATIONS CORP.,,100.0% - HARVEST OPERATIONS CORP.,1/1/1950,,,52.55234,111.67519,6356.64,3001.75,,0.0,0.0,0.0,0.0,0.0,,163.61,0.0,3001.75,2118.88,12585.74,0.0,,0.0,0.0,0.0,94.39,,0.0,460.15,289.93,0.0,0.0,0.0,0.0,0.0,6.65,,0.0,Gas Plant Acid Gas Flaring > 1 T/d Sulphur,03-28-041-12W4M,2021-06-01,460.15,289.93,62.98,8.36,118.66,13.3,0.0,0.0,0.0,0.0,0.0,0.0,0.0,0.0,0.0,0.0,0.0,6.65,0.0,0.0,0.0,0.0,0.0,0.0,0.0,0.0,0.0,0.0,,,,,,,,,,,,,,,,,,
ABGP0001688,Active,STETTLER 8-24-38-19W4,GP,Beltz Lake,CANADIAN NATURAL RESOURCES LIMITED,,100.0% - CANADIAN NATURAL RESOURCES LIMITED,1/1/1993,,,52.27983,112.57945,19988.1,19882.15,,,,,,,,144.74,,10594.4,10594.4,0.0,0.0,,0.0,0.0,0.0,377.57,,0.0,1655.9,1525.83,0.0,0.0,0.0,0.0,0.0,17.52,,0.0,Gas Plant Sweet,08-24-038-19W4M,2021-06-01,1655.9,1525.83,0.0,21.42,93.82,0.0,0.0,0.0,0.0,0.0,0.0,0.0,0.0,0.0,0.0,0.0,0.0,17.52,0.0,0.0,0.0,0.0,0.0,0.0,0.0,0.0,0.0,0.0,,,,,,,,,,,,,,,,,,
ABGP0001836,Active,D ENERGY BENTON 10-18-29-3W4,GP,Benton,CANLIN RESOURCES PARTNERSHIP,,,,,,51.48345,110.41231,12006.99,10947.55,,,,,,,,6.29,,1236.01,1059.44,0.0,0.0,,0.0,0.0,0.0,25.17,,0.0,305.87,235.7,0.0,0.0,0.0,0.0,0.85,0.0,,0.0,Gas Plant Sweet,10-18-029-03W4M,2018-01-01,305.87,235.7,0.0,1.03,72.0,0.0,0.0,0.0,0.0,0.0,0.0,0.0,0.0,0.0,0.0,0.0,0.85,0.0,0.0,0.0,0.0,0.0,0.0,0.0,0.0,0.0,0.0,0.0,,,,,,,,,,,,,,,,,,
ABGP0001852,Suspended,BERKLEY PUSKWASKAU,GP,Berkley Puskwaskau,CANADIAN NATURAL RESOURCES LIMITED,,100.0% - CANADIAN NATURAL RESOURCES LIMITED,,,,55.33962,118.11246,,,,,,,,,,,,,,,,,,,,,,,328.43,183.41,0.0,0.0,0.0,0.0,20.28,5.05,,0.0,Gas Plant Sweet,10-20-073-01W6M,1999-01-01,328.43,183.41,0.0,27.34,28.37,0.0,89.31,0.0,0.0,0.0,0.0,0.0,0.0,0.0,0.0,0.0,20.28,5.05,0.0,0.0,0.0,0.0,0.0,0.0,0.0,0.0,0.0,0.0,,,,,,,,,,,,,,,,,,
ABGP0078222,Suspended,BERLAND RIVER W 16-15-59-24W5,GP,Berland River,CANADIAN NATURAL RESOURCES LIMITED,,100.0% - CANADIAN NATURAL RESOURCES LIMITED,,,,54.10680,117.50440,20623.76,20553.13,,0.0,0.0,0.0,0.0,0.0,,207.04,0.0,10594.4,9888.11,,,,,,,125.86,,,118.93,98.43,0.0,0.0,0.0,0.0,1.87,3.21,,0.0,Gas Plant Sweet,16-15-059-24W5M,2015-03-01,118.93,98.43,0.0,6.27,9.23,0.0,0.0,0.0,0.0,0.0,0.0,0.0,0.0,0.0,0.0,0.0,1.87,3.21,0.0,0.0,0.0,0.0,0.0,0.0,0.0,0.0,0.0,0.0,,,,,,,,,,,,,,,,,,
ABGP0001841,Active,BERLAND SWEET PLANT  14-15-59-24W5,GP,Berland Sweet Plant,TOURMALINE OIL CORP.,,44.0% - TOURMALINE OIL CORP.; 56.0% - CENOVUS ENERGY INC.,1/1/2002,,,54.10681,117.51672,164167.27,160999.55,,0.0,0.0,0.0,0.0,1636.15,,592.16,,158915.98,158915.98,0.0,0.0,,0.0,0.0,1195.65,188.79,,0.0,103693.5,98223.73,0.0,0.0,0.0,0.0,1681.98,139.81,,0.0,Gas Plant Sweet,14-15-059-24W5M,2021-06-01,103693.5,98223.73,0.0,2131.24,1863.2,5.77,0.0,0.0,0.0,0.0,0.0,0.0,0.0,0.0,0.0,0.0,1681.98,139.81,0.0,0.0,0.0,0.0,0.0,0.0,0.0,0.0,0.0,0.0,,,,,,,,,,,,,,,,,,
ABGP0094071,Suspended,JUPITER GAS PLANT 4-36-58-24W5,GP,Berland West,REPSOL OIL & GAS CANADA INC.,,100.0% - REPSOL OIL & GAS CANADA INC.,1/1/2007,,,54.05202,117.44182,98881.05,98881.05,,0.0,0.0,0.0,0.0,0.0,,698.51,,99940.49,99940.49,0.0,0.0,,0.0,0.0,0.0,805.49,,0.0,0.0,0.0,0.0,0.0,0.0,0.0,1.78,0.0,,0.0,Gas Plant Sweet,04-36-058-24W5M,2013-02-01,0.0,0.0,0.0,0.0,0.0,0.0,0.0,0.0,0.0,0.0,0.0,0.0,0.0,0.0,0.0,0.0,1.78,0.0,0.0,0.0,0.0,0.0,0.0,0.0,0.0,0.0,0.0,0.0,,,,,,,,,,,,,,,,,,
ABGP0001413,Active,SUCCESS BERRY GAS PLANT,GP,Berry,SUCCESS RESOURCES LTD.,,100.0% - SUCCESS RESOURCES LTD.,1/1/1983,,,51.27252,111.77171,2966.43,,,,,,,,,,,3001.75,2825.17,283.18,0.0,,0.0,0.0,0.0,62.93,,0.0,1290.52,1116.89,0.0,0.0,0.0,0.0,0.0,11.18,,0.0,Gas Plant Sweet,02-04-027-13W4M,2021-06-01,1290.52,1116.89,0.0,13.3,115.13,0.0,0.0,0.0,0.0,0.0,0.0,0.0,0.0,0.0,0.0,0.0,0.0,11.18,0.0,0.0,0.0,0.0,0.0,0.0,0.0,0.0,0.0,0.0,,,,,,,,,,,,,,,,,,
ABGP0001085,Active,PENN WEST TOMAHAWK 04-02 GP,GP,Berrymoor,OBSIDIAN ENERGY LTD.,,2.9% - SIGNALTA RESOURCES LIMITED; 6.2% - CANETIC RESOURCES INC.; 90.9% - OBSIDIAN ENERGY LTD.,,,,53.28161,114.77261,18010.48,,,,,,,,,,,1949.37,1697.22,0.0,0.0,,0.0,0.0,0.0,75.51,,0.0,1174.33,1072.98,0.0,0.0,0.0,0.0,3.31,0.0,,0.0,Gas Plant Sweet,03-02-050-06W5M,2021-06-01,1174.33,1072.98,0.0,3.88,44.38,0.0,0.0,0.0,0.0,0.0,0.0,0.0,0.0,0.0,0.0,0.0,3.31,0.0,0.0,0.0,0.0,0.0,0.0,0.0,0.0,0.0,0.0,0.0,,,,,,,,,,,,,,,,,,
ABGP0001755,Suspended,DEVON BERWYN GAS PLANT,GP,Berwyn,LONG RUN EXPLORATION LTD.,,75.0% - LONG RUN EXPLORATION LTD.; 25.0% - MASTERS ENERGY INC.,1/1/2000,,,56.15061,117.91934,10594.4,,,,,,,,,,,10594.4,10594.4,0.0,0.0,,0.0,0.0,0.0,0.0,,0.0,5149.11,4754.04,0.0,0.0,0.0,0.0,1.36,0.0,,0.0,Gas Plant Sweet,08-36-082-26W5M,2000-01-01,5149.11,4754.04,0.0,1.59,140.69,0.0,252.78,0.0,0.0,0.0,0.0,0.0,0.0,0.0,0.0,0.0,1.36,0.0,0.0,0.0,0.0,0.0,0.0,0.0,0.0,0.0,0.0,0.0,,,,,,,,,,,,,,,,,,
ABGP0001862,Suspended,PETRO-CAN BEZANSON,GP,Bezanson,BIRCHCLIFF ENERGY LTD.,,100.0% - BIRCHCLIFF ENERGY LTD.,1/1/1994,,,55.14341,118.43933,19988.1,19493.69,,0.0,0.0,0.0,0.0,276.89,,0.0,,20002.22,19493.69,0.0,0.0,,0.0,0.0,276.89,0.0,,0.0,67.33,42.83,0.0,0.0,0.0,0.0,3.25,0.0,,0.0,Gas Plant Sweet,01-18-071-03W6M,2014-01-01,67.33,42.83,0.0,3.76,32.01,2.28,0.0,0.0,0.0,0.0,0.0,0.0,0.0,0.0,0.0,0.0,3.25,0.0,0.0,0.0,0.0,0.0,0.0,0.0,0.0,0.0,0.0,0.0,,,,,,,,,,,,,,,,,,
ABGP0001293,Active,BIG BEND 13-36-66-27W4,GP,Big Bend,CANADIAN NATURAL RESOURCES LIMITED,,100.0% - CANADIAN NATURAL RESOURCES LIMITED,1/1/1978,,,54.76011,113.95977,5720.98,,,,,,,,,,,34855.57,34855.57,0.0,0.0,,0.0,0.0,0.0,0.0,,0.0,2125.47,1869.44,0.0,0.0,0.0,0.0,0.0,0.0,,0.0,Gas Plant Acid Gas Flaring > 1 T/d Sulphur,13-36-066-27W4M,2021-06-01,2125.47,1869.44,0.0,0.0,146.79,4.0,0.0,0.0,0.0,0.0,0.0,0.0,0.0,0.0,0.0,0.0,0.0,0.0,0.0,0.0,0.0,0.0,0.0,0.0,0.0,0.0,0.0,0.0,,,,,,,,,,,,,,,,,,
ABGP0001454,Suspended,00/14-36-053-26W4 ST ALBERT GP,GP,Big Lake,SINOPEC DAYLIGHT ENERGY LTD.,,100.0% - SINOPEC DAYLIGHT ENERGY LTD.,1/1/1960,,,53.62692,113.70437,4944.05,,,,,,,,,,,3143.0,2118.88,75.51,0.0,,0.0,0.0,0.0,0.0,,0.0,1482.08,1461.23,0.0,0.0,0.0,0.0,0.0,0.0,,0.0,Gas Plant Acid Gas Flaring < 1 T/d Sulphur,14-36-053-26W4M,2014-08-01,1482.08,1461.23,0.0,0.0,36.23,3.3,0.0,0.0,0.0,0.0,0.0,0.0,0.0,0.0,0.0,0.0,0.0,0.0,0.0,0.0,0.0,0.0,0.0,0.0,0.0,0.0,0.0,0.0,,,,,,,,,,,,,,,,,,
ABGP0001590,Active,BIGSTONE 1-17-26-10W4,GP,Big Stone,CANADIAN NATURAL RESOURCES LIMITED,,100.0% - CANADIAN NATURAL RESOURCES LIMITED,1/1/1983,,,51.21435,111.35675,35985.64,33725.5,,0.0,0.0,0.0,0.0,50.34,,0.0,,10594.4,10594.4,0.0,0.0,,0.0,0.0,0.0,314.64,,0.0,1196.7,1041.66,0.0,0.0,0.0,0.0,7.68,0.0,,0.0,Gas Plant Sweet,01-17-026-10W4M,2021-06-01,1196.7,1041.66,0.0,8.95,107.0,1.06,0.0,0.0,0.0,0.0,0.0,0.0,0.0,0.0,0.0,0.0,7.68,0.0,0.0,0.0,0.0,0.0,0.0,0.0,0.0,0.0,0.0,0.0,,,,,,,,,,,,,,,,,,
ABGP0001138,Active,PENN WEST BIGORAY,GP,Bigoray,OBSIDIAN ENERGY LTD.,,100.0% - OBSIDIAN ENERGY LTD.,1/1/1977,,,53.43065,115.12218,4944.05,4061.19,,0.0,0.0,0.0,0.0,0.0,,157.32,,2472.03,2048.25,0.0,0.0,,0.0,0.0,0.0,943.93,,0.0,3010.57,2167.61,0.0,0.0,0.0,0.0,0.0,162.63,,0.0,Gas Plant Acid Gas Flaring > 1 T/d Sulphur,06-28-051-08W5M,2021-06-01,3010.57,2167.61,0.0,311.24,152.09,9.53,0.0,0.0,0.0,0.0,0.0,0.0,0.0,0.0,0.0,0.0,0.0,162.63,0.0,0.0,0.0,0.0,0.0,0.0,0.0,0.0,0.0,0.0,,,,,,,,,,,,,,,,,,
ABGP0001853,Active,BIGSTONE PLANT 100/14-28-059-22W5 GP,GP,Bigstone,REPSOL OIL & GAS CANADA INC.,,64.2% - REPSOL OIL & GAS CANADA INC.; 26.4% - DISTINCTION ENERGY CORP.; 7.9% - CONOCOPHILLIPS CANADA LIMITED; 1.5% - CANADIAN NATURAL RESOURCES LIMITED,1/1/1996,,,54.13590,117.24181,85002.39,79913.55,,0.0,0.0,0.0,0.0,0.0,,2405.76,,84755.19,79775.82,0.0,0.0,,0.0,0.0,0.0,2517.15,,0.0,38000.22,34264.64,0.0,0.0,0.0,0.0,19.55,1196.38,,0.0,Gas Plant Sweet,14-28-059-22W5M,2021-06-01,38000.22,34264.64,0.0,1601.76,2154.67,31.19,0.0,0.0,0.0,0.0,0.0,0.0,0.0,0.0,0.0,0.0,19.55,1196.38,0.0,0.0,0.0,0.0,0.0,0.0,0.0,0.0,0.0,0.0,,,,,,,,,,,,,,,,,,
ABGP0001462,Abandoned,AMOCO BIGSTONE DUNVEGAN,GP,Bigstone Dunvegan,BP CANADA ENERGY GROUP ULC,,100.0% - PARAMOUNT RESOURCES LTD.,,,,54.25950,117.21683,31783.2,,,,,,,,,,,,,,,,,,,,,,3836.08,3480.32,0.0,0.0,0.0,0.0,0.0,157.71,,0.0,Gas Plant Sweet,06-10-061-22W5M,1998-10-01,3836.08,3480.32,0.0,184.89,140.35,45.57,0.0,0.0,0.0,0.0,0.0,0.0,0.0,0.0,0.0,0.0,0.0,157.71,0.0,0.0,0.0,0.0,0.0,0.0,0.0,0.0,0.0,0.0,,,,,,,,,,,,,,,,,,
ABGP0135716,Active,BILBO-04-25-065-07 W6M,GP,Bilbo,HARVEST OPERATIONS CORP.,,100.0% - HARVEST OPERATIONS CORP.,1/1/2015,,,54.64908,118.92828,49999.91,47679.74,,0.0,0.0,0.0,0.0,2271.73,,1271.16,,56503.46,49793.67,,,,,,7551.44,471.97,,,7508.84,6107.44,0.0,0.0,0.0,0.0,310.66,122.42,,0.0,Gas Plant Sweet,04-25-065-07W6M,2021-06-01,7508.84,6107.44,0.0,523.36,826.83,27.31,0.0,0.0,0.0,0.0,0.0,0.0,0.0,0.0,0.0,0.0,310.66,122.42,0.0,0.0,0.0,0.0,0.0,0.0,0.0,0.0,0.0,0.0,,,,,,,,,,,,,,,,,,
ABGP0099610,Active,BINDLOSS NORTH GAS PLANT,GP,Bindloss North,TAQA NORTH LTD.,,87.0% - TAQA NORTH LTD.; 2.1% - OBSIDIAN ENERGY LTD.; 7.7% - SABRE ENERGY LTD.; 1.8% - SIGNALTA RESOURCES LIMITED; 1.3% - 868218 ALBERTA LTD.,,,,50.90169,110.48071,353.15,3354.89,,0.0,0.0,0.0,0.0,0.0,,0.63,0.0,5756.29,5756.29,,,,,,,,,,961.38,829.66,0.0,0.0,0.0,0.0,0.0,0.0,,0.0,Gas Plant Sweet,11-27-022-04W4M,2021-06-01,961.38,829.66,0.0,0.0,99.47,0.0,0.0,0.0,0.0,0.0,0.0,0.0,0.0,0.0,0.0,0.0,0.0,0.0,0.0,0.0,0.0,0.0,0.0,0.0,0.0,0.0,0.0,0.0,,,,,,,,,,,,,,,,,,
ABGP0099613,Active,BINDLOSS SOUTH GAS PLANT,GP,Bindloss South,TAQA NORTH LTD.,,87.0% - TAQA NORTH LTD.; 2.1% - OBSIDIAN ENERGY LTD.; 7.7% - SABRE ENERGY LTD.; 1.3% - 868218 ALBERTA LTD.; 1.8% - SIGNALTA RESOURCES LIMITED,1/1/1957,,,50.88676,110.38826,353.15,3354.89,,0.0,0.0,0.0,0.0,0.0,,0.63,0.0,3178.32,2472.03,,,,,,,,,,1399.99,1275.09,0.0,0.0,0.0,0.0,0.0,0.0,,0.0,Gas Plant Sweet,11-20-022-03W4M,2021-06-01,1399.99,1275.09,0.0,0.0,112.89,0.0,0.0,0.0,0.0,0.0,0.0,0.0,0.0,0.0,0.0,0.0,0.0,0.0,0.0,0.0,0.0,0.0,0.0,0.0,0.0,0.0,0.0,0.0,,,,,,,,,,,,,,,,,,
ABGP0001476,Suspended,APACHE WILLESDEN GREEN,GP,Bingley,BONAVISTA ENERGY CORPORATION,,100.0% - BONAVISTA ENERGY CORPORATION,1/1/1983,,,52.48129,114.87421,,,,,,,,,,,,2648.6,2401.4,471.97,0.0,,0.0,0.0,0.0,0.0,,0.0,1003.05,0.0,0.0,0.0,0.0,0.0,0.0,54.12,,0.0,Gas Plant Sweet,02-36-040-07W5M,2002-04-01,1003.05,0.0,0.0,72.75,28.13,0.71,0.0,0.0,0.0,0.0,0.0,0.0,0.0,0.0,0.0,0.0,0.0,54.12,0.0,0.0,0.0,0.0,0.0,0.0,0.0,0.0,0.0,0.0,,,,,,,,,,,,,,,,,,
ABGP0001877,Abandoned,INVASION BISON LAKE,GP,Bison Lake,PRAIRIE PROVIDENT RESOURCES CANADA LTD.,,100.0% - PRAIRIE PROVIDENT RESOURCES CANADA LTD.,,,,57.21929,116.39587,4944.05,,,,,,,,,,,,,,,,,,,,,,188.42,19.37,0.0,0.0,0.0,0.0,0.83,0.0,,0.0,Gas Plant Sweet,15-05-095-15W5M,2004-12-01,188.42,19.37,0.0,0.91,160.17,0.0,0.0,0.0,0.0,0.0,0.0,0.0,0.0,0.0,0.0,0.0,0.83,0.0,0.0,0.0,0.0,0.0,0.0,0.0,0.0,0.0,0.0,0.0,,,,,,,,,,,,,,,,,,
ABGP0134834,Suspended,BISTCHO LAKE 6-32 ACID GAS INJECTION,GP,Bistcho Lake,TALLAHASSEE EXPLORATION INC.,,,,,,59.63916,118.30596,16774.46,15891.6,,0.0,0.0,0.0,0.0,125.86,,0.0,,,,,,,,,,,,,1.71,0.0,0.0,0.0,0.0,0.0,0.0,0.0,,0.0,Gas Plant Acid Gas Injection,06-32-122-02W6M,2019-03-01,1.71,0.0,0.0,0.0,1.71,0.0,0.0,0.0,0.0,0.0,0.0,0.0,0.0,0.0,0.0,0.0,0.0,0.0,0.0,0.0,0.0,0.0,0.0,0.0,0.0,0.0,0.0,0.0,,,,,,,,,,,,,,,,,,
ABGP0001269,Suspended,SUN CENTURY BITTERN LAKE,GP,Bittern Lake,SUN CENTURY PETROLEUM CORPORATION,,100.0% - SUN CENTURY PETROLEUM CORPORATION,1/1/1990,,,52.99804,112.97011,19988.1,19246.49,,,,,,,,314.64,,10241.25,10241.25,0.0,0.0,,0.0,0.0,0.0,12.59,,0.0,0.0,0.0,0.0,0.0,0.0,0.0,0.0,3.31,,0.0,Gas Plant Acid Gas Flaring < 1 T/d Sulphur,11-27-046-21W4M,2016-11-01,0.0,0.0,0.0,0.0,0.0,0.0,0.0,0.0,0.0,0.0,0.0,0.0,0.0,0.0,0.0,0.0,0.0,3.31,0.0,0.0,0.0,0.0,0.0,0.0,0.0,0.0,0.0,0.0,,,,,,,,,,,,,,,,,,
ABGP0084455,Active,HUSKY BIVOUAC,GP,Bivouac,HUSKY OIL OPERATIONS LIMITED,,100.0% - HUSKY OIL OPERATIONS LIMITED,1/1/2004,,,58.43262,119.97036,29840.89,28022.18,,0.0,341.7,0.0,0.0,0.0,,,0.0,21895.09,21188.8,0.0,0.0,,0.0,0.0,0.0,0.0,,0.0,7820.79,7432.32,0.0,0.0,0.0,0.0,92.61,0.0,,0.0,Gas Plant Sweet,06-05-109-12W6M,2021-06-01,7820.79,7432.32,0.0,107.36,223.19,9.53,0.0,0.0,0.0,0.0,0.0,0.0,0.0,0.0,0.0,0.0,92.61,0.0,0.0,0.0,0.0,0.0,0.0,0.0,0.0,0.0,0.0,0.0,,,,,,,,,,,,,,,,,,
ABGP0001048,Active,ALTANA BLACK BUTTE,GP,Black Butte,PINE CLIFF ENERGY LTD.,,100.0% - PINE CLIFF ENERGY LTD.,1/1/1962,,,49.03026,111.05495,5297.2,4944.05,,,,,,,,,,7945.8,3178.32,0.0,0.0,,0.0,0.0,0.0,0.0,,0.0,2289.92,2045.07,0.0,0.0,0.0,0.0,0.0,0.0,,0.0,Gas Plant Acid Gas Flaring < 1 T/d Sulphur,01-18-001-08W4M,2021-06-01,2289.92,2045.07,0.0,0.0,212.48,0.0,0.0,0.0,0.0,0.0,0.0,0.0,0.0,0.0,0.0,0.0,0.0,0.0,0.0,0.0,0.0,0.0,0.0,0.0,0.0,0.0,0.0,0.0,,,,,,,,,,,,,,,,,,
BCGP0018237,Active,BLACK SWAN AITKEN CREEK NORTH C-038-C/094-H-04 001,GP,Black Swan Aitken Creek,BLACK SWAN ENERGY LTD.,,,1/1/2016,,,57.02907,121.84521,119999.22,110534.89,,,,1585.8,1208.23,2183.63,,,,,,,,,,,,,,,100126.72,92987.86,41.87,0.0,1675.62,1100.1,893.19,0.0,,0.0,,C-038-C 094-H-04,2021-04-01,100126.72,92987.86,0.0,0.0,0.0,0.0,0.0,0.0,0.0,41.87,0.0,1675.62,0.0,1100.1,0.0,0.0,893.19,0.0,0.0,0.0,0.0,0.0,0.0,0.0,0.0,0.0,0.0,0.0,,,,,,,,,,,,,,,,,,
BCGP0007442,Active,ALTAGAS BLAIR D-058-F/094-B-16 003,GP,Blair,ALTAGAS LTD.,,100.0% - ALTAGAS LTD.,10/1/2005,,,56.87907,122.34521,119999.22,112795.03,,0.0,,258.01,358.69,868.42,0.0,0.0,0.0,63954.85,63954.85,0.0,188.79,,0.0,0.0,576.43,936.38,,0.0,50444.05,48724.35,28.28,0.0,186.63,223.1,447.07,0.0,,0.0,,D-058-F 094-B-16,2021-04-01,50444.05,48724.35,0.0,0.0,0.0,0.0,0.0,0.0,0.0,28.28,0.0,186.63,0.0,223.1,0.0,0.0,447.07,0.0,0.0,0.0,0.0,0.0,0.0,0.0,0.0,0.0,0.0,0.0,,,,,,,,,,,,,,,,,,
ABGP0001857,Active,RENAISSANCE BLOOD NORTH 16-35,GP,Blood North,TAMARACK ACQUISITION CORP.,,100.0% - TAMARACK ACQUISITION CORP.,1/1/1994,,,49.52128,112.85553,13036.76,,,,,,,,,,,6356.64,5650.35,0.0,0.0,,0.0,0.0,0.0,125.86,,0.0,967.15,784.57,0.0,0.0,0.0,0.0,3.17,0.0,,0.0,Gas Plant Sweet,16-35-006-22W4M,2021-06-01,967.15,784.57,0.0,3.65,132.67,0.0,0.0,0.0,0.0,0.0,0.0,0.0,0.0,0.0,0.0,0.0,3.17,0.0,0.0,0.0,0.0,0.0,0.0,0.0,0.0,0.0,0.0,0.0,,,,,,,,,,,,,,,,,,
ABGP0001648,Suspended,* BLUE RANGE JOFFRE,GP,Blue Range Joffre,BLUE RANGE RESOURCE CORPORATION,,100.0% - BLUE RANGE RESOURCE CORPORATION,,,,52.23590,113.37683,,,,,,,,,,,,,,,,,,,,,,,3587.97,0.0,0.0,0.0,0.0,0.0,3.98,0.0,,0.0,Gas Plant Sweet,06-04-038-24W4M,1997-02-01,3587.97,0.0,0.0,3.78,172.03,0.0,3412.15,0.0,0.0,0.0,0.0,0.0,0.0,0.0,0.0,0.0,3.98,0.0,0.0,0.0,0.0,0.0,0.0,0.0,0.0,0.0,0.0,0.0,,,,,,,,,,,,,,,,,,
ABGP0001741,Suspended,SHIININGBANK BLUERIDGE 6-33,GP,Blue Ridge,TAQA NORTH LTD.,,100.0% - TAQA NORTH LTD.,1/1/1999,,,54.23044,115.29208,3531.47,14775.65,,,,,,,,236.61,,2825.17,2825.17,125.86,0.0,,0.0,0.0,0.0,0.0,,0.0,100.48,89.31,0.0,0.0,0.0,0.0,0.0,0.85,,0.0,Gas Plant Sweet,06-33-060-09W5M,2004-08-01,100.48,89.31,0.0,0.91,8.66,0.0,0.0,0.0,0.0,0.0,0.0,0.0,0.0,0.0,0.0,0.0,0.0,0.85,0.0,0.0,0.0,0.0,0.0,0.0,0.0,0.0,0.0,0.0,,,,,,,,,,,,,,,,,,
ABGP0001270,Suspended,TALISMAN BLUEBERRY,GP,Blueberry,REPSOL OIL & GAS CANADA INC.,,100.0% - SPARTAN DELTA CORP.,,,,56.11082,119.03493,40011.51,,,,,,,,,,,14125.86,12360.13,0.0,0.0,,0.0,0.0,0.0,0.0,,0.0,753.91,711.19,0.0,0.0,0.0,0.0,0.0,0.0,,0.0,Gas Plant Acid Gas Flaring < 1 T/d Sulphur,11-16-082-07W6M,2003-07-01,753.91,711.19,0.0,0.0,45.8,5.92,0.0,0.0,0.0,0.0,0.0,0.0,0.0,0.0,0.0,0.0,0.0,0.0,0.0,0.0,0.0,0.0,0.0,0.0,0.0,0.0,0.0,0.0,,,,,,,,,,,,,,,,,,
ABGP0091983,Active,BNP WHITECOURT GAS PLANT 16-30,GP,Bnp Whitecourt,OUTLIER RESOURCES LTD.,,100.0% - OUTLIER RESOURCES LTD.,1/1/2006,,,54.22327,115.92961,11999.92,10001.11,,0.0,0.0,0.0,0.0,0.0,,356.18,,9888.11,9888.11,0.0,0.0,,0.0,0.0,0.0,125.86,,0.0,334.69,295.85,0.0,0.0,0.0,0.0,2.98,0.0,,0.0,Gas Plant Sweet,16-30-060-13W5M,2018-05-01,334.69,295.85,0.0,3.42,46.48,0.0,0.0,0.0,0.0,0.0,0.0,0.0,0.0,0.0,0.0,0.0,2.98,0.0,0.0,0.0,0.0,0.0,0.0,0.0,0.0,0.0,0.0,0.0,,,,,,,,,,,,,,,,,,
ABGP0001252,Active,NORCEN PROVOST,GP,Bodo,GOODLAND ENERGY LTD.,,100.0% - GOODLAND ENERGY LTD.,1/1/1973,,,52.22844,110.26991,4944.05,,,,,,,,,,,1999.87,1999.87,0.0,0.0,,0.0,0.0,0.0,1.57,,0.0,227.96,219.93,0.0,0.0,0.0,0.0,0.0,0.0,,0.0,Gas Plant Sweet,16-31-037-02W4M,2016-02-01,227.96,219.93,0.0,0.0,0.0,0.0,0.0,0.0,0.0,0.0,0.0,0.0,0.0,0.0,0.0,0.0,0.0,0.0,0.0,0.0,0.0,0.0,0.0,0.0,0.0,0.0,0.0,0.0,,,,,,,,,,,,,,,,,,
ABGP0001650,Suspended,HUSKY BOLLOQUE 16-2,GP,Bolloque,HUSKY OIL OPERATIONS LIMITED,,100.0% - HUSKY OIL OPERATIONS LIMITED,,,,54.59994,113.66365,,,,,,,,,,,,,,,,,,,,,,,4548.19,4757.91,0.0,0.0,0.0,0.0,5.36,0.0,,0.0,Gas Plant Acid Gas Flaring < 1 T/d Sulphur,16-02-065-25W4M,1999-07-01,4548.19,4757.91,0.0,1.82,251.76,0.0,0.0,0.0,0.0,0.0,0.0,0.0,0.0,0.0,0.0,0.0,5.36,0.0,0.0,0.0,0.0,0.0,0.0,0.0,0.0,0.0,0.0,0.0,,,,,,,,,,,,,,,,,,
ABGP0001550,Suspended,DEVON POUCE COUPE,GP,Bonanza,BIRCHCLIFF ENERGY LTD.,,100.0% - BIRCHCLIFF ENERGY LTD.,1/1/1987,,,55.91796,119.83718,13984.61,13772.72,,0.0,0.0,0.0,0.0,251.71,,0.0,,2825.17,2825.17,0.0,0.0,,0.0,0.0,0.0,125.86,,0.0,3172.55,3072.02,0.0,0.0,0.0,0.0,0.0,0.0,,0.0,Gas Plant Sweet,07-08-080-12W6M,2012-06-01,3172.55,3072.02,0.0,0.0,98.17,0.35,0.0,0.0,0.0,0.0,0.0,0.0,0.0,0.0,0.0,0.0,0.0,0.0,0.0,0.0,0.0,0.0,0.0,0.0,0.0,0.0,0.0,0.0,,,,,,,,,,,,,,,,,,
ABGP0001549,Active,BONNIE GLEN 09-19-043-25W4 GAS PLANT,GP,Bonnie Glen,AXIOM OIL AND GAS INC.,,100.0% - AXIOM OIL AND GAS INC.,1/1/1986,,,52.72147,113.61093,30017.46,,,,,,,,,,,14000.14,14000.14,0.0,0.0,,0.0,0.0,0.0,125.86,,0.0,1064.5,998.93,0.0,0.0,0.0,0.0,1.11,14.12,,0.0,Gas Plant Sweet,09-19-043-25W4M,2021-06-01,1064.5,998.93,0.0,20.13,20.72,0.0,0.0,0.0,0.0,0.0,0.0,0.0,0.0,0.0,0.0,0.0,1.11,14.12,0.0,0.0,0.0,0.0,0.0,0.0,0.0,0.0,0.0,0.0,,,,,,,,,,,,,,,,,,
ABGP0001074,Suspended,IMPERIAL BONNIE GLEN,GP,Bonnie Glen Cycle,IMPERIAL OIL RESOURCES LIMITED,,100.0% - IMPERIAL OIL RESOURCES LIMITED,,,,53.04881,113.91788,258609.27,224883.77,,19268.77,0.0,12396.95,7142.41,7048.01,,0.0,,140000.04,0.0,0.0,0.0,,0.0,0.0,0.0,0.0,,0.0,36.11,0.0,0.0,0.0,0.0,0.0,0.0,0.0,,0.0,Gas Plant Acid Gas Flaring > 1 T/d Sulphur,03-17-047-27W4M,2008-05-01,36.11,0.0,0.0,0.0,36.11,0.0,0.0,0.0,0.0,0.0,0.0,0.0,0.0,0.0,0.0,0.0,0.0,0.0,0.0,0.0,0.0,0.0,0.0,0.0,0.0,0.0,0.0,0.0,,,,,,,,,,,,,,,,,,
ABGP0001045,Suspended,IMPERIAL BONNIE GLEN,GP,Bonnie Glen Solutions,IMPERIAL OIL RESOURCES LIMITED,,100.0% - IMPERIAL OIL RESOURCES LIMITED,,,,53.04881,113.92390,258609.27,224883.77,,19268.77,0.0,12396.95,7142.41,7048.01,,0.0,,90010.72,0.0,0.0,0.0,,0.0,0.0,0.0,0.0,,0.0,0.57,0.0,0.0,0.0,0.0,0.0,0.0,0.0,,0.0,Gas Plant Sulphur Recovery,04-17-047-27W4M,2008-12-01,0.57,0.0,0.0,0.0,0.0,0.57,0.0,0.0,0.0,0.0,0.0,0.0,0.0,0.0,0.0,0.0,0.0,0.0,0.0,0.0,0.0,0.0,0.0,0.0,0.0,0.0,0.0,0.0,,,,,,,,,,,,,,,,,,
ABGP0138789,Active,BONTERRA 11-17 SWEET GAS PLANT,GP,Bonterra Sweet Gas,BONTERRA ENERGY CORP.,,,,,,53.23071,114.55308,9001.71,8577.93,,0.0,0.0,0.0,0.0,0.0,,275.63,,,,,,,,,,,,,5475.07,5097.2,0.0,0.0,0.0,0.0,0.0,136.28,,0.0,Gas Plant Sweet,11-17-049-04W5M,2021-06-01,5475.07,5097.2,0.0,185.87,247.56,1.18,0.0,0.0,0.0,0.0,0.0,0.0,0.0,0.0,0.0,0.0,0.0,136.28,0.0,0.0,0.0,0.0,0.0,0.0,0.0,0.0,0.0,0.0,,,,,,,,,,,,,,,,,,
ABGP0119984,Suspended,BOTHA 7-16-98-5W6,GP,Botha,CANADIAN NATURAL RESOURCES LIMITED,,89.5% - CANADIAN NATURAL RESOURCES LIMITED; 10.5% - OBSIDIAN ENERGY LTD.,1/1/1994,,,57.50268,118.74226,15891.6,15520.79,,,,,,,,,,16000.01,,,,,,,,,,,21.19,0.0,0.0,0.0,0.0,0.0,0.0,0.0,,0.0,Gas Plant Acid Gas Flaring < 1 T/d Sulphur,07-16-098-05W6M,2019-07-01,21.19,0.0,0.0,0.0,21.19,0.0,0.0,0.0,0.0,0.0,0.0,0.0,0.0,0.0,0.0,0.0,0.0,0.0,0.0,0.0,0.0,0.0,0.0,0.0,0.0,0.0,0.0,0.0,,,,,,,,,,,,,,,,,,
BCGP0000445,Active,WHITECAP BOUNDARYLAKE 07-02-085-14 002,GP,Boundary Lake,WHITECAP RESOURCES INC.,,100.0% - WHITECAP RESOURCES INC.,4/1/1989,,,56.33902,120.09341,11018.17,8263.63,,,,755.14,,,,,1.1,,,,,,,,,,,,5547.25,4000.47,0.0,0.0,85.18,208.7,1.42,0.0,,25.48,,07-02-085-14W6M,2004-12-01,5547.25,4000.47,0.0,603.88,771.45,90.11,0.0,0.0,0.0,0.0,0.0,85.18,0.0,208.7,0.0,0.0,1.42,0.0,25.48,0.0,0.0,0.0,0.0,0.0,0.0,0.0,0.0,0.0,,,,,,,,,,,,,,,,,,
BCGP0000730,Active,CANLIN BOUNDARYLAKE 14-24-084-15 003,GP,Boundary Lake Sour Gas Plant,CANLIN ENERGY CORPORATION,,62.5% - CANLIN ENERGY CORPORATION,8/1/1991,,,56.30274,120.23166,45767.8,44778.99,,,,,,574.54,,,4.08,45909.06,44778.99,0.0,0.0,,0.0,0.0,574.54,0.0,,3.92,10101.41,9334.96,0.0,0.0,0.0,0.0,72.54,0.0,,4.7,,14-24-084-15W6M,2021-04-01,10101.41,9334.96,0.0,0.0,0.0,0.0,0.0,0.0,0.0,0.0,0.0,0.0,0.0,0.0,0.0,0.0,72.54,0.0,4.7,0.0,0.0,0.0,0.0,0.0,0.0,0.0,0.0,0.0,,,,,,,,,,,,,,,,,,
ABGP0001024,Active,BOUNDARY LAKE 01-14-085-13W6,GP,Boundary Lake South,CANADIAN NATURAL RESOURCES LIMITED,,100.0% - CANADIAN NATURAL RESOURCES LIMITED,,,,56.36475,119.92871,47851.37,47039.13,,,,,,24.54,,11.96,,52971.99,52971.99,0.0,0.0,,0.0,0.0,0.0,0.0,,0.0,6511.91,5798.79,0.0,0.0,0.0,0.0,6.9,152.12,,0.0,Gas Plant Acid Gas Flaring > 1 T/d Sulphur,01-14-085-13W6M,2021-06-01,6511.91,5798.79,0.0,215.89,245.55,38.49,0.0,0.0,0.0,0.0,0.0,0.0,0.0,0.0,0.0,0.0,6.9,152.12,0.0,0.0,0.0,0.0,0.0,0.0,0.0,0.0,0.0,0.0,,,,,,,,,,,,,,,,,,
BCGP0000465,Suspended,CANLIN BOUNDARYLAKE 11-24-084-15 001,GP,Boundary Lake Sweet Gas Plant,CANLIN ENERGY CORPORATION,,100.0% - CANLIN ENERGY CORPORATION,4/1/1989,,,56.29910,120.23166,19882.15,19670.27,,,,333.52,,,,,,20000.11,0.0,0.0,0.0,,333.52,0.0,0.0,0.0,,0.0,167.8,146.95,0.0,0.0,0.3,0.0,0.91,0.0,,0.0,,11-24-084-15W6M,2012-10-01,167.8,146.95,0.0,0.0,0.0,0.0,0.0,0.0,0.0,0.0,0.0,0.3,0.0,0.0,0.0,0.0,0.91,0.0,0.0,0.0,0.0,0.0,0.0,0.0,0.0,0.0,0.0,0.0,,,,,,,,,,,,,,,,,,
ABGP0098678,Active,BOUNDARY LAKE CENTRAL 10-19 GP,GP,Boundry Hill,ENERCAPITA ENERGY LTD.,,100.0% - ENERCAPITA ENERGY LTD.,1/1/2008,,,56.47357,119.72428,2348.43,2217.76,,,,,,,,,,2542.66,2542.66,,,,,,,,,1.09,391.05,387.75,0.0,0.0,0.0,0.0,0.0,0.0,,0.0,Gas Plant Acid Gas Flaring < 1 T/d Sulphur,10-19-086-11W6M,2021-06-01,391.05,387.75,0.0,0.0,0.0,0.0,0.0,0.0,0.0,0.0,0.0,0.0,0.0,0.0,0.0,0.0,0.0,0.0,0.0,0.0,0.0,0.0,0.0,0.0,0.0,0.0,0.0,0.0,,,,,,,,,,,,,,,,,,
ABGP0095750,Active,BOW ISLAND 6-26-11-11W4,GP,Bow Island,CANADIAN NATURAL RESOURCES LIMITED,,100.0% - CANADIAN NATURAL RESOURCES LIMITED,1/1/1996,,,49.93704,111.40637,1575.03,515.59,,0.0,0.0,0.0,0.0,0.0,,136.56,,2330.77,1765.73,2517.15,0.0,,0.0,0.0,0.0,12.59,,0.0,200.94,84.76,0.0,0.0,0.0,0.0,0.0,1.74,,0.0,Gas Plant Acid Gas Flaring < 1 T/d Sulphur,06-26-011-11W4M,2021-06-01,200.94,84.76,0.0,2.24,99.94,38.96,0.0,0.0,0.0,0.0,0.0,0.0,0.0,0.0,0.0,0.0,0.0,1.74,0.0,0.0,0.0,0.0,0.0,0.0,0.0,0.0,0.0,0.0,,,,,,,,,,,,,,,,,,
ABGP0114466,Suspended,BRANTFARROW 14-05-019-24W4 GAS PLANT,GP,Brantfarrow,TAQA NORTH LTD.,,68.0% - TAQA NORTH LTD.; 32.0% - COASTAL RESOURCES LIMITED,1/1/1999,,,50.58502,113.29692,9997.58,9972.86,,0.0,0.0,0.0,0.0,0.0,,0.0,0.0,5932.86,5932.86,,,,,,31.46,99.43,,,184.93,123.72,0.0,0.0,0.0,0.0,1.3,5.08,,0.0,Gas Plant Sweet,14-05-019-24W4M,2019-04-01,184.93,123.72,0.0,8.24,42.97,0.0,0.0,0.0,0.0,0.0,0.0,0.0,0.0,0.0,0.0,0.0,1.3,5.08,0.0,0.0,0.0,0.0,0.0,0.0,0.0,0.0,0.0,0.0,,,,,,,,,,,,,,,,,,
BCGP0007463,Active,SHELL BRASSEY 07-34-077-19 001,GP,Brassey,SHELL CANADA LIMITED,,100.0% - SHELL CANADA LIMITED,5/1/2006,,,55.71409,120.85513,19069.92,,,0.0,,,,,0.0,0.0,0.0,21188.8,15891.6,0.0,0.0,,0.0,0.0,0.0,0.0,,0.0,10732.71,9706.82,0.0,0.0,0.0,0.0,0.0,0.0,,0.0,,07-34-077-19W6M,2021-04-01,10732.71,9706.82,0.0,0.0,0.0,0.0,0.0,0.0,0.0,0.0,0.0,0.0,0.0,0.0,0.0,0.0,0.0,0.0,0.0,0.0,0.0,0.0,0.0,0.0,0.0,0.0,0.0,0.0,,,,,,,,,,,,,,,,,,
ABGP0129178,Active,PEYTO BRAZEAU 06-12-044-13W5 GAS,GP,Brazeau,PEYTO EXPLORATION & DEVELOPMENT CORP.,,100.0% - PEYTO EXPLORATION & DEVELOPMENT CORP.,1/1/2013,,,52.77609,115.75734,150793.61,150295.32,,0.0,0.0,0.0,0.0,633.06,,387.01,,31783.2,30017.46,,,,,,,251.71,,,101975.68,97249.75,0.0,0.0,0.0,0.0,1615.51,1460.39,,0.0,Gas Plant Sweet,06-12-044-13W5M,2021-06-01,101975.68,97249.75,0.0,3848.0,3222.93,20.95,0.0,0.0,0.0,0.0,0.0,0.0,0.0,0.0,0.0,0.0,1615.51,1460.39,0.0,0.0,0.0,0.0,0.0,0.0,0.0,0.0,0.0,0.0,,,,,,,,,,,,,,,,,,
ABGP0001108,Active,KEYERA BRAZEAU EAST 6-12-046-14W5,GP,Brazeau River,KEYERA ENERGY LTD.,,100.0% - KEYERA ENERGY LTD.,1/1/1968,,,52.95069,115.90241,218244.61,195996.38,,,,,,9074.32,,3146.43,,217999.88,0.0,0.0,0.0,,0.0,0.0,0.0,0.0,,0.0,175426.65,165256.14,0.0,0.0,0.0,0.0,2091.88,2407.09,,0.0,Gas Plant Sulphur Recovery,06-12-046-14W5M,2021-06-01,175426.65,165256.14,2062.61,5784.19,1964.2,557.85,0.0,0.0,0.0,0.0,0.0,0.0,0.0,0.0,0.0,0.0,2091.88,2407.09,0.0,0.0,0.0,0.0,0.0,0.0,0.0,0.0,0.0,0.0,,,,,,,,,,,,,,,,,,
ABGP0001747,Active,PENGROWTH BRENT 5-11 GAS PLANT,GP,Brent,ALPHABOW ENERGY LTD.,,100.0% - ALPHABOW ENERGY LTD.,1/1/1999,,,51.90176,111.60852,15891.6,14885.13,,,,,,84.95,,,,9888.11,9358.39,,,,,,,31.46,,,1072.51,971.86,0.0,0.0,0.0,0.0,0.0,0.0,,0.0,Gas Plant Sweet,05-11-034-12W4M,2021-06-01,1072.51,971.86,0.0,0.0,62.62,0.0,0.0,0.0,0.0,0.0,0.0,0.0,0.0,0.0,0.0,0.0,0.0,0.0,0.0,0.0,0.0,0.0,0.0,0.0,0.0,0.0,0.0,0.0,,,,,,,,,,,,,,,,,,
ABGP0075866,Suspended,NRK BREWSTER 03-17-043-14W5,GP,Brewster,TAQA NORTH LTD.,,100.0% - TAQA NORTH LTD.,1/1/2004,,,52.69988,115.99910,10001.11,9556.15,,0.0,0.0,0.0,0.0,0.0,,249.83,0.0,10001.11,9556.15,100.06,0.0,,0.0,0.0,0.0,249.83,,0.0,115.74,87.38,0.0,0.0,0.0,0.0,0.0,0.0,,0.0,Gas Plant Sweet,03-17-043-14W5M,2015-08-01,115.74,87.38,0.0,0.0,45.11,0.0,0.0,0.0,0.0,0.0,0.0,0.0,0.0,0.0,0.0,0.0,0.0,0.0,0.0,0.0,0.0,0.0,0.0,0.0,0.0,0.0,0.0,0.0,,,,,,,,,,,,,,,,,,
ABGP0001116,Active,APACHE PROVOST,GP,Brownfield,KARVE ENERGY INC.,,96.1% - KARVE ENERGY INC.,1/1/1969,,,52.31960,111.47757,28251.73,27722.01,,0.0,0.0,0.0,0.0,226.54,,88.1,0.0,11653.84,11653.84,0.0,0.0,,0.0,0.0,0.0,94.39,,0.0,1130.19,888.52,0.0,0.0,0.0,0.0,0.0,11.6,,0.0,Gas Plant Sweet,02-02-039-11W4M,2021-06-01,1130.19,888.52,0.0,14.95,335.49,2.35,0.0,0.0,0.0,0.0,0.0,0.0,0.0,0.0,0.0,0.0,0.0,11.6,0.0,0.0,0.0,0.0,0.0,0.0,0.0,0.0,0.0,0.0,,,,,,,,,,,,,,,,,,
ABGP0001783,Suspended,DOMINION EAST BRUCE 10-01,GP,Bruce East,1333002 ALBERTA LTD.,,100.0% - SEQUOIA RESOURCES CORP.,,,,53.11422,112.05992,7300.25,7977.58,,0.0,0.0,0.0,0.0,3.78,,0.0,0.0,,,,,,,,,,,,3274.73,3001.75,0.0,0.0,0.0,0.0,0.0,0.0,,0.0,Gas Plant Sweet,10-01-048-15W4M,2002-09-01,3274.73,3001.75,0.0,0.0,47.32,0.0,0.0,0.0,0.0,0.0,0.0,0.0,0.0,0.0,0.0,0.0,0.0,0.0,0.0,0.0,0.0,0.0,0.0,0.0,0.0,0.0,0.0,0.0,,,,,,,,,,,,,,,,,,
ABGP0001175,Active,ARCHER BRUCE,GP,Bruce/West Holden,SEQUOIA RESOURCES CORP.,,100.0% - SEQUOIA RESOURCES CORP.,,,,53.01979,112.18785,21895.09,,,,,,,,,,,14125.86,14125.86,0.0,0.0,,0.0,0.0,0.0,0.0,,0.0,19.82,1.71,0.0,0.0,0.0,0.0,0.81,0.0,,0.0,Gas Plant Sweet,03-06-047-15W4M,2018-03-01,19.82,1.71,0.0,0.91,16.29,0.0,0.0,0.0,0.0,0.0,0.0,0.0,0.0,0.0,0.0,0.0,0.81,0.0,0.0,0.0,0.0,0.0,0.0,0.0,0.0,0.0,0.0,0.0,,,,,,,,,,,,,,,,,,
BCGP0000558,Discontinued,NRM HOLD LTD BUCKINGHORSE A-081-H/094-G-06 002,GP,Buchinghorse,NORTHRIVER MIDSTREAM ENERGY HOLDINGS LIMITED,,100.0% - NORTHRIVER MIDSTREAM ENERGY HOLDINGS LIMITED,11/1/1989,,,57.40405,123.00774,100011.12,,,,,,,,,,0.36,,,,,,,,,,,,4105.61,3644.7,0.0,0.0,0.0,0.0,0.0,0.0,,0.0,,A-081-H 094-G-06,1999-12-01,4105.61,3644.7,0.0,0.0,150.6,133.17,0.0,0.0,0.0,0.0,0.0,0.0,0.0,0.0,0.0,0.0,0.0,0.0,0.0,0.0,0.0,0.0,0.0,0.0,0.0,0.0,0.0,0.0,,,,,,,,,,,,,,,,,,
ABGP0001700,Active,BUCK CREEK FRAC PLANT,GP,Buck Creek Fractionation Plant,PLAINS MIDSTREAM CANADA ULC,,100.0% - PLAINS MIDSTREAM CANADA ULC,1/1/1958,,,53.16142,114.90048,3.53,3.53,,0.0,0.0,17053.68,0.0,3165.31,,0.0,,0.0,882.87,0.0,0.0,,0.0,0.0,3335.22,10572.02,,0.0,340.9,153.5,0.0,0.0,0.0,0.0,0.0,0.0,,0.0,Gas Plant Fractionation,13-24-048-07W5M,2021-06-01,340.9,153.5,0.0,0.0,145.5,41.91,0.0,0.0,0.0,0.0,0.0,0.0,0.0,0.0,0.0,0.0,0.0,0.0,0.0,0.0,0.0,0.0,0.0,0.0,0.0,0.0,0.0,0.0,,,,,,,,,,,,,,,,,,
ABGP0001273,Suspended,D ENERGY BASHAW 11-24-41-21W4,GP,Buffalo Lake,EMBER RESOURCES INC.,,89.0% - EMBER RESOURCES INC.,1/1/1977,,,52.54537,112.89882,6956.99,6603.84,,0.0,0.0,0.0,0.0,3.15,,0.0,,6956.99,6956.99,0.0,0.0,,0.0,0.0,0.0,0.0,,0.0,1831.65,1614.94,0.0,0.0,0.0,0.0,0.0,0.0,,0.0,Gas Plant Sweet,11-24-041-21W4M,2019-04-01,1831.65,1614.94,0.0,0.0,216.6,0.0,0.0,0.0,0.0,0.0,0.0,0.0,0.0,0.0,0.0,0.0,0.0,0.0,0.0,0.0,0.0,0.0,0.0,0.0,0.0,0.0,0.0,0.0,,,,,,,,,,,,,,,,,,
ABGP0001618,Reclamation Exempt,* ANADARKO BURDETT,GP,Burdett,REPSOL OIL & GAS CANADA INC.,,100.0% - REPSOL OIL & GAS CANADA INC.,,,,49.74784,111.23791,6999.37,6872.23,,,,,,,,,,,,,,,,,,,,,550.03,485.07,0.0,0.0,0.0,0.0,0.0,0.0,,0.0,Gas Plant Acid Gas Injection,06-24-009-10W4M,1991-02-01,550.03,485.07,0.0,0.25,45.15,0.0,19.55,0.0,0.0,0.0,0.0,0.0,0.0,0.0,0.0,0.0,0.0,0.0,0.0,0.0,0.0,0.0,0.0,0.0,0.0,0.0,0.0,0.0,,,,,,,,,,,,,,,,,,
ABGP0001131,Suspended,SHELL BURNT TIMBER,GP,Burnt Timber,SHELL CANADA ENERGY,,100.0% - SHELL CANADA LIMITED,1/1/1972,,,51.57117,114.85391,127485.93,105131.75,,,,,,157.32,,,595.69,113006.92,,0.0,0.0,,0.0,0.0,151.03,0.0,,551.16,473.22,473.22,0.0,0.0,0.0,0.0,0.0,0.0,,0.0,Gas Plant Sulphur Recovery,10-13-030-07W5M,2014-07-01,473.22,473.22,0.0,0.0,0.0,0.0,0.0,0.0,0.0,0.0,0.0,0.0,0.0,0.0,0.0,0.0,0.0,0.0,0.0,0.0,0.0,0.0,0.0,0.0,0.0,0.0,0.0,0.0,,,,,,,,,,,,,,,,,,
ABGP0001507,Suspended,BYEMOOR 8-32-34-17W4,GP,Byemoor,CANADIAN NATURAL RESOURCES LIMITED,,100.0% - CANADIAN NATURAL RESOURCES LIMITED,,,,51.96012,112.37051,6356.64,5932.86,,0.0,0.0,0.0,0.0,0.0,,25.8,,3531.47,3178.32,0.0,0.0,,0.0,0.0,0.0,0.0,,0.0,808.25,655.26,0.0,0.0,0.0,0.0,0.0,0.0,,0.0,Gas Plant Sweet,08-32-034-17W4M,2018-08-01,808.25,655.26,0.0,0.0,92.16,0.0,0.0,0.0,0.0,0.0,0.0,0.0,0.0,0.0,0.0,0.0,0.0,0.0,0.0,0.0,0.0,0.0,0.0,0.0,0.0,0.0,0.0,0.0,,,,,,,,,,,,,,,,,,
ABGP0001431,Suspended,C STAR SULLIVAN LAKE,GP,C Star Sullivan Lake,ARC RESOURCES LTD.,,100.0% - ARC RESOURCES LTD.,,,,52.02839,111.86504,,,,,,,,,,,,,,,,,,,,,,,132.78,0.0,0.0,0.0,0.0,0.0,0.0,0.0,,0.0,Gas Plant Sweet,01-25-035-14W4M,1994-04-01,132.78,0.0,0.0,0.0,0.0,0.0,132.78,0.0,0.0,0.0,0.0,0.0,0.0,0.0,0.0,0.0,0.0,0.0,0.0,0.0,0.0,0.0,0.0,0.0,0.0,0.0,0.0,0.0,,,,,,,,,,,,,,,,,,
BCGP0007812,Active,NRM GP CABIN D-076-J/094-P-04 002,GP,Cabin Lake,NORTHRIVER MIDSTREAM G AND P CANADA INC.,,100.0% - NORTHRIVER MIDSTREAM G AND P CANADA INC.,4/23/2013,,,59.22911,121.69529,795992.49,,,,,,,,,,,,,,,,,,,,,,0.0,0.0,3.15,0.0,146.73,301.2,741.91,0.0,,0.0,,D-076-J 094-P-04,2014-11-01,0.0,0.0,0.0,0.0,0.0,0.0,0.0,0.0,0.0,3.15,0.0,146.73,0.0,301.2,0.0,0.0,741.91,0.0,0.0,0.0,0.0,0.0,0.0,0.0,0.0,0.0,0.0,0.0,,,,,,,,,,,,,,,,,,
ABGP0001640,Abandoned,* CABRE MCGREGOR,GP,Cabre Mcgregor,ENERMARK INC.,,100.0% - IPC CANADA LTD.,,,,50.48666,112.71082,36833.19,36833.19,,,0.0,285.07,0.0,292.62,,285.07,3.67,,,,,,,,,,,,2774.14,1404.84,0.0,0.0,0.0,0.0,0.0,0.0,,0.0,Gas Plant Acid Gas Flaring < 1 T/d Sulphur,01-05-018-20W4M,1995-08-01,2774.14,1404.84,0.0,473.33,783.42,0.0,112.55,0.0,0.0,0.0,0.0,0.0,0.0,0.0,0.0,0.0,0.0,0.0,0.0,0.0,0.0,0.0,0.0,0.0,0.0,0.0,0.0,0.0,,,,,,,,,,,,,,,,,,
ABGP0098003,Suspended,HUSKY 09-30 ABGP,GP,Callihoo,HUSKY OIL OPERATIONS LIMITED,,100.0% - HUSKY OIL OPERATIONS LIMITED,1/1/2003,,,53.69575,113.96227,4975.84,,,,,,,,,,,353.15,321.36,,,,,,,118.31,,,38.39,30.19,0.0,0.0,0.0,0.0,0.0,0.0,,0.0,Gas Plant Sweet,09-30-054-27W4M,2017-07-01,38.39,30.19,0.0,0.0,6.84,0.0,0.0,0.0,0.0,0.0,0.0,0.0,0.0,0.0,0.0,0.0,0.0,0.0,0.0,0.0,0.0,0.0,0.0,0.0,0.0,0.0,0.0,0.0,,,,,,,,,,,,,,,,,,
ABGP0001397,Active,CALLING LAKE S 1-20-70-22W4,GP,Calling Lake South,CANADIAN NATURAL RESOURCES LIMITED,,100.0% - CANADIAN NATURAL RESOURCES LIMITED,1/1/1978,,,55.06939,113.31382,15008.73,14832.16,,,,,,39.02,,,,12006.99,12006.99,0.0,0.0,,0.0,0.0,0.0,0.0,,0.0,5194.9,4851.06,0.0,0.0,0.0,0.0,27.46,0.0,,0.0,Gas Plant Acid Gas Flaring < 1 T/d Sulphur,01-20-070-22W4M,2021-06-01,5194.9,4851.06,5.06,31.9,310.18,1.06,0.0,0.0,0.0,0.0,0.0,0.0,0.0,0.0,0.0,0.0,27.46,0.0,0.0,0.0,0.0,0.0,0.0,0.0,0.0,0.0,0.0,0.0,,,,,,,,,,,,,,,,,,
ABGP0001786,Active,BP CANADA CALLUM CREEK 2-24,GP,Callum Creek,LEXIN RESOURCES LTD.,,100.0% - LEXIN RESOURCES LTD.,1/1/2001,,,50.00702,114.14606,30017.46,29134.6,,0.0,0.0,0.0,0.0,0.0,,755.14,,30017.46,30017.46,0.0,0.0,,0.0,0.0,0.0,503.43,,0.0,760.8,540.9,0.0,0.0,0.0,0.0,2.96,13.63,,0.0,Gas Plant Sweet,02-24-012-02W5M,2016-04-01,760.8,540.9,0.0,21.42,141.26,1.41,0.0,0.0,0.0,0.0,0.0,0.0,0.0,0.0,0.0,0.0,2.96,13.63,0.0,0.0,0.0,0.0,0.0,0.0,0.0,0.0,0.0,0.0,,,,,,,,,,,,,,,,,,
ABGP0001676,Active,MIDWEST LEDUC-WOODBEND,GP,Calmar,NEP CANADA ULC,,100.0% - NEP CANADA ULC,1/1/1997,,,53.24139,113.83897,40011.51,28816.76,,0.0,0.0,0.0,0.0,114.53,,0.0,,30017.46,20482.5,0.0,0.0,,0.0,0.0,0.0,0.0,,0.0,21080.85,19900.4,0.0,0.0,0.0,0.0,179.87,0.0,,0.0,Gas Plant Acid Gas Flaring > 1 T/d Sulphur,07-23-049-27W4M,2021-06-01,21080.85,19900.4,210.12,208.59,171.28,30.49,0.0,0.0,0.0,0.0,0.0,0.0,0.0,0.0,0.0,0.0,179.87,0.0,0.0,0.0,0.0,0.0,0.0,0.0,0.0,0.0,0.0,0.0,,,,,,,,,,,,,,,,,,
ABGP0001729,Abandoned,CALVALLEY RAINBOW,GP,Calvalley Rainbow,LINKS NORTHERN RESOURCES LTD.,,100.0% - WINTER PETROLEUM LTD.,,,,58.59968,118.61046,6391.95,,,,,,,,,,,,,,,,,,,,,,3102.68,3065.88,0.0,0.0,0.0,0.0,0.0,0.0,,0.0,Gas Plant Sweet,13-33-110-04W6M,1998-10-01,3102.68,3065.88,0.0,0.0,132.37,0.0,0.0,0.0,0.0,0.0,0.0,0.0,0.0,0.0,0.0,0.0,0.0,0.0,0.0,0.0,0.0,0.0,0.0,0.0,0.0,0.0,0.0,0.0,,,,,,,,,,,,,,,,,,
ABGP0001010,Suspended,* NORCEN CAMPBELL-NAMAO,GP,Campbell,CANADIAN NATURAL RESOURCES LIMITED,,100.0% - CANADIAN NATURAL RESOURCES LIMITED,,,,53.68898,113.56889,,,,,,,,,,,,,,,,,,,,,,,10598.96,10576.17,0.0,0.0,0.0,0.0,0.0,0.0,,0.0,Gas Plant Acid Gas Flaring < 1 T/d Sulphur,01-26-054-25W4M,1990-08-01,10598.96,10576.17,0.0,0.11,17.54,0.0,5.13,0.0,0.0,0.0,0.0,0.0,0.0,0.0,0.0,0.0,0.0,0.0,0.0,0.0,0.0,0.0,0.0,0.0,0.0,0.0,0.0,0.0,,,,,,,,,,,,,,,,,,
ABGP0001040,Reclamation Certified,* CAN OXY OKOTOKS,GP,Can Oxy Okotoks,CNOOC PETROLEUM NORTH AMERICA ULC,,100.0% - CNOOC PETROLEUM NORTH AMERICA ULC,,,,50.71951,113.94883,0.0,,,,,,,,,,,,,,,,,,,,,,3391.12,1387.41,0.0,0.0,0.0,0.0,0.0,0.0,,0.0,Gas Plant Sulphur Recovery,04-27-020-29W4M,1991-07-01,3391.12,1387.41,0.0,1600.67,1088.94,0.0,0.0,0.0,0.0,0.0,0.0,0.0,0.0,0.0,0.0,0.0,0.0,0.0,0.0,0.0,0.0,0.0,0.0,0.0,0.0,0.0,0.0,0.0,,,,,,,,,,,,,,,,,,
ABGP0001291,Suspended,* CANTERRA OYEN,GP,Canterra Oyen,CANTERRA ENERGY LTD.,,100.0% - CANTERRA ENERGY LTD.,,,,51.48346,110.53520,,,,,,,,,,,,,,,,,,,,,,,935.01,932.78,0.0,0.0,0.0,0.0,0.0,0.0,,0.0,Gas Plant Sweet,11-17-029-04W4M,1991-04-01,935.01,932.78,0.0,0.0,47.2,0.0,0.0,0.0,0.0,0.0,0.0,0.0,0.0,0.0,0.0,0.0,0.0,0.0,0.0,0.0,0.0,0.0,0.0,0.0,0.0,0.0,0.0,0.0,,,,,,,,,,,,,,,,,,
ABGP0001014,Active,ATCO CARBON,GP,Carbon,ATCO ENERGY SOLUTIONS LTD.,,100.0% - ATCO ENERGY SOLUTIONS LTD.,1/1/1967,,,51.47964,113.05534,547024.12,545964.68,,0.0,0.0,0.0,0.0,566.36,,0.0,,19423.06,17657.33,0.0,0.0,,0.0,0.0,0.0,50.34,,0.0,157456.9,26361.92,0.0,0.0,0.0,0.0,0.0,0.0,,0.0,Gas Plant Sweet,08-17-029-22W4M,2021-06-01,157456.9,26361.92,129979.85,0.0,1113.24,1.88,0.0,0.0,0.0,0.0,0.0,0.0,0.0,0.0,0.0,0.0,0.0,0.0,0.0,0.0,0.0,0.0,0.0,0.0,0.0,0.0,0.0,0.0,,,,,,,,,,,,,,,,,,
ABGP0081174,Active,ATCO CARBON SOUTH,GP,Carbon South,ATCO ENERGY SOLUTIONS LTD.,,100.0% - ATCO ENERGY SOLUTIONS LTD.,,,,51.47964,113.05534,7839.86,7627.97,,0.0,0.0,0.0,0.0,44.68,,0.0,0.0,2295.45,60034.93,0.0,0.0,,0.0,0.0,0.0,10.07,,0.0,1451.31,1531.48,0.0,0.0,0.0,0.0,6.78,0.0,,0.0,Gas Plant Sweet,08-17-029-22W4M,2018-09-01,1451.31,1531.48,0.0,7.89,80.05,0.0,0.0,0.0,0.0,0.0,0.0,0.0,0.0,0.0,0.0,0.0,6.78,0.0,0.0,0.0,0.0,0.0,0.0,0.0,0.0,0.0,0.0,0.0,,,,,,,,,,,,,,,,,,
ABGP0001638,Abandoned,ATCO CAMPBELL-NAMAO,GP,Carbondale,ATCO ENERGY SOLUTIONS LTD.,,100.0% - ATCO ENERGY SOLUTIONS LTD.,1/1/1991,,,53.72172,113.58593,55917.24,53360.45,,0.0,0.0,0.0,0.0,28.95,,0.0,1.27,55903.11,53713.6,0.0,0.0,,0.0,0.0,0.0,0.0,,1.27,19937.06,19364.62,0.0,0.0,0.0,0.0,0.0,0.0,,0.03,Gas Plant Sulphur Recovery,06-01-055-25W4M,2014-08-01,19937.06,19364.62,0.0,311.22,774.3,0.8,0.0,0.0,0.0,0.0,0.0,0.0,0.0,0.0,0.0,0.0,0.0,0.0,0.03,0.0,0.0,0.0,0.0,0.0,0.0,0.0,0.0,0.0,,,,,,,,,,,,,,,,,,
BCGP0007966,Active,PETRONAS CARIBOU C-016-F/094-G-07 001,GP,Caribou,PETRONAS ENERGY CANADA LTD.,,,3/18/2014,,,57.34572,122.82023,195996.38,,,,,,,,,,,195996.38,193065.26,,,,,,,,,,23405.85,23035.87,0.0,0.0,0.0,0.0,0.0,0.0,,0.0,,C-016-F 094-G-07,2021-04-01,23405.85,23035.87,0.0,0.0,0.0,0.0,0.0,0.0,0.0,0.0,0.0,0.0,0.0,0.0,0.0,0.0,0.0,0.0,0.0,0.0,0.0,0.0,0.0,0.0,0.0,0.0,0.0,0.0,,,,,,,,,,,,,,,,,,
ABGP0001643,Abandoned,* SHELL CAROLINE,GP,Caroline,SHELL CANADA LIMITED,,100.0% - SHELL CANADA LIMITED,,,,51.88420,114.80783,,,,,,,,,,,,,,,,,,,,,,,435.55,0.0,0.0,0.0,0.0,0.0,0.0,0.0,,0.0,Gas Plant Sulphur Recovery,01-05-034-06W5M,1992-06-01,435.55,0.0,0.0,0.0,435.55,0.0,0.0,0.0,0.0,0.0,0.0,0.0,0.0,0.0,0.0,0.0,0.0,0.0,0.0,0.0,0.0,0.0,0.0,0.0,0.0,0.0,0.0,0.0,,,,,,,,,,,,,,,,,,
ABGP0001662,Active,SHELL CAROLINE,GP,Caroline Complex,PIERIDAE ALBERTA PRODUCTION LTD.,,14.4% - HUSKY OIL (ALBERTA) LTD; 8.2% - HARVEST OPERATIONS CORP.; 3.1% - DEVON ENERGY CANADA CORPORATION; 0.2% - CLEARVIEW RESOURCES LTD.; 0.1% - BONAVISTA ENERGY CORPORATION; 73.9% - SHELL CANADA LIMITED,1/1/1992,,,51.96409,114.75452,383164.09,158915.98,,,34359.07,,,26650.3,,,5977.28,365965.85,123601.32,0.0,0.0,,0.0,0.0,15732.17,31464.35,,,97543.57,58267.66,0.0,0.0,0.0,0.0,935.62,2544.06,,812.39,Gas Plant Sulphur Recovery,12-35-034-06W5M,2021-06-01,97543.57,58267.66,0.0,37450.73,7793.95,27.66,0.0,0.0,0.0,0.0,0.0,0.0,0.0,0.0,0.0,0.0,935.62,2544.06,812.39,0.0,0.0,0.0,0.0,0.0,0.0,0.0,0.0,0.0,,,,,,,,,,,,,,,,,,
ABGP0001374,Suspended,AMOCO CAROLINE N,GP,Caroline North,BONAVISTA ENERGY CORPORATION,,100.0% - BONAVISTA ENERGY CORPORATION,,,,51.98623,114.74246,19988.1,36303.47,,,,,,,,2202.5,3.86,0.0,0.0,0.0,0.0,,0.0,0.0,0.0,0.0,,0.0,14128.26,11344.09,0.0,0.0,0.0,0.0,0.0,871.46,,0.22,Gas Plant Sulphur Recovery,01-11-035-06W5M,2003-08-01,14128.26,11344.09,0.0,1304.36,748.33,42.04,0.0,0.0,0.0,0.0,0.0,0.0,0.0,0.0,0.0,0.0,0.0,871.46,0.22,0.0,0.0,0.0,0.0,0.0,0.0,0.0,0.0,0.0,,,,,,,,,,,,,,,,,,
ABGP0001104,Suspended,AMOCO SOUTH CAROLINE,GP,Caroline South,BP CANADA ENERGY GROUP ULC,,100.0% - BONAVISTA ENERGY CORPORATION,,,,51.92784,114.53595,37433.54,44567.1,,0.0,0.0,1006.86,622.99,1447.36,,0.0,9.2,,,,,,,,,,,,26198.42,25830.44,0.0,0.0,0.0,0.0,0.0,0.0,,0.0,Gas Plant Sulphur Recovery,03-20-034-04W5M,2007-04-01,26198.42,25830.44,0.0,0.0,452.62,18.6,0.0,0.0,0.0,0.0,0.0,0.0,0.0,0.0,0.0,0.0,0.0,0.0,0.0,0.0,0.0,0.0,0.0,0.0,0.0,0.0,0.0,0.0,,,,,,,,,,,,,,,,,,
ABGP0001195,Abandoned,LARIO CESSFORD,GP,Carolside,HUSKY OIL OPERATIONS LIMITED,,50.0% - LARIO OIL & GAS COMPANY; 50.0% - HUSKY OIL OPERATIONS LIMITED,,,,51.18893,111.64169,4530.87,4431.99,,0.0,0.0,0.0,0.0,0.0,,0.0,,4620.57,994.81,1006.86,0.0,,0.0,0.0,0.0,471.97,,0.0,15.38,14.35,0.0,0.0,0.0,0.0,0.0,0.0,,0.0,Gas Plant Sweet,07-05-026-12W4M,2010-12-01,15.38,14.35,0.0,0.0,3.53,0.0,0.0,0.0,0.0,0.0,0.0,0.0,0.0,0.0,0.0,0.0,0.0,0.0,0.0,0.0,0.0,0.0,0.0,0.0,0.0,0.0,0.0,0.0,,,,,,,,,,,,,,,,,,
ABGP0001394,Active,D ENERGY CARROT CREEK 10-16-53-13W5,GP,Carrot Creek,VERMILION ENERGY INC.,,100.0% - VERMILION ENERGY INC.,,,,53.57939,115.85348,40965.01,38821.41,,0.0,0.0,0.0,0.0,454.35,,1007.49,,40965.01,,0.0,0.0,,0.0,0.0,0.0,629.29,,0.0,15516.2,13352.36,0.0,0.0,0.0,0.0,303.71,591.63,,0.0,Gas Plant Sweet,10-16-053-13W5M,2021-06-01,15516.2,13352.36,0.0,1178.57,618.48,47.79,0.0,0.0,0.0,0.0,0.0,0.0,0.0,0.0,0.0,0.0,303.71,591.63,0.0,0.0,0.0,0.0,0.0,0.0,0.0,0.0,0.0,0.0,,,,,,,,,,,,,,,,,,
ABGP0001215,Active,MANITOK CARSELAND 16-21 GAS PLANT,GP,Carseland,PERSIST OIL AND GAS INC.,,100.0% - PERSIST OIL AND GAS INC.,1/1/1982,,,50.89069,113.40116,14214.15,13850.41,,0.0,0.0,0.0,0.0,8.18,,0.0,,11830.41,10594.4,0.0,0.0,,0.0,0.0,0.0,251.71,,0.0,5281.07,4665.3,0.0,0.0,0.0,0.0,0.46,72.26,,0.0,Gas Plant Acid Gas Flaring < 1 T/d Sulphur,16-21-022-25W4M,2021-06-01,5281.07,4665.3,0.0,97.7,372.92,3.88,0.0,0.0,0.0,0.0,0.0,0.0,0.0,0.0,0.0,0.0,0.46,72.26,0.0,0.0,0.0,0.0,0.0,0.0,0.0,0.0,0.0,0.0,,,,,,,,,,,,,,,,,,
ABGP0001062,Active,ACCEL ENERGY CARSON CREEK GP,GP,Carson Creek,ACCEL CANADA HOLDINGS LIMITED,,95.0% - ACCEL CANADA HOLDINGS LIMITED; 5.0% - JOURNEY ENERGY INC.,1/1/1960,,,54.28503,115.69813,26132.85,21188.8,,0.0,0.0,0.0,0.0,3605.19,,2458.62,,34608.37,31783.2,12585.74,0.0,,0.0,0.0,629.29,1258.57,,0.0,4208.1,3480.38,0.0,0.0,0.0,0.0,80.78,265.87,,0.0,Gas Plant Acid Gas Flaring > 1 T/d Sulphur,04-23-061-12W5M,2021-06-01,4208.1,3480.38,0.0,539.96,635.55,31.55,0.0,0.0,0.0,0.0,0.0,0.0,0.0,0.0,0.0,0.0,80.78,265.87,0.0,0.0,0.0,0.0,0.0,0.0,0.0,0.0,0.0,0.0,,,,,,,,,,,,,,,,,,
ABGP0001622,Active,CELSIUS WHITECOURT,GP,Carson Creek East,ENERPLUS CORPORATION,,100.0% - ENERPLUS CORPORATION,1/1/1987,,,54.24148,115.56090,7451.39,,,,,,,,,,,7451.39,6780.42,0.0,0.0,,0.0,0.0,105.72,0.0,,0.0,716.65,603.06,0.0,0.0,0.0,0.0,1.38,0.0,,0.0,Gas Plant Acid Gas Flaring < 1 T/d Sulphur,02-03-061-11W5M,2017-04-01,716.65,603.06,0.0,21.54,106.77,0.0,0.0,0.0,0.0,0.0,0.0,0.0,0.0,0.0,0.0,0.0,1.38,0.0,0.0,0.0,0.0,0.0,0.0,0.0,0.0,0.0,0.0,0.0,,,,,,,,,,,,,,,,,,
ABGP0001020,Suspended,DEVON CARSTAIRS,GP,Carstairs,BONAVISTA ENERGY CORPORATION,,20.0% - BONAVISTA ENERGY CORPORATION; 36.0% - DIRECT ENERGY MARKETING LIMITED; 18.0% - EXXONMOBIL CANADA ENERGY; 10.0% - PROVIDENT ENERGY LTD.; 2.0% - SIGNALTA RESOURCES LIMITED; 8.0% - BP CANADA ENERGY COMPANY,1/1/1960,,,51.53479,114.20383,348131.94,296360.65,,0.0,0.0,4134.42,3133.85,6613.81,,0.0,71.43,348131.94,296360.65,0.0,0.0,,4134.42,3133.85,6613.81,0.0,,80.14,19612.62,14077.11,89.05,0.0,1401.85,1334.05,1844.1,0.0,,2.86,Gas Plant Sulphur Recovery,03-03-030-02W5M,2008-10-01,19612.62,14077.11,0.0,2597.79,2845.11,13.21,0.0,0.0,0.0,89.05,0.0,1401.85,0.0,1334.05,0.0,0.0,1844.1,0.0,2.86,0.0,0.0,0.0,0.0,0.0,0.0,0.0,0.0,0.0,,,,,,,,,,,,,,,,,,
ABGP0001730,Active,CARVEL 15-28 GAS PLANT,GP,Carvel,NEP CANADA ULC,,100.0% - NEP CANADA ULC,1/1/1998,,,53.61211,114.23204,11971.67,,,,,,,,,,,4944.05,4944.05,0.0,0.0,,0.0,0.0,0.0,6.29,,0.0,155.95,155.04,0.0,0.0,0.0,0.0,0.0,0.2,,0.0,Gas Plant Sweet,15-28-053-02W5M,2016-03-01,155.95,155.04,0.0,0.23,2.39,0.0,0.0,0.0,0.0,0.0,0.0,0.0,0.0,0.0,0.0,0.0,0.0,0.2,0.0,0.0,0.0,0.0,0.0,0.0,0.0,0.0,0.0,0.0,,,,,,,,,,,,,,,,,,
ABGP0086283,Suspended,ACCLAIM CASTOR GP 2-2,GP,Castor,OBSIDIAN ENERGY LTD.,,100.0% - OBSIDIAN ENERGY LTD.,1/1/2005,,,52.14487,111.75189,7981.11,7239.51,,,,,,,,17.62,,7000.07,1589.16,0.0,0.0,,0.0,0.0,0.0,0.0,,0.0,395.76,276.28,0.0,0.0,0.0,0.0,0.0,5.01,,0.0,Gas Plant Sweet,02-02-037-13W4M,2018-09-01,395.76,276.28,0.0,6.24,98.65,0.0,0.0,0.0,0.0,0.0,0.0,0.0,0.0,0.0,0.0,0.0,0.0,5.01,0.0,0.0,0.0,0.0,0.0,0.0,0.0,0.0,0.0,0.0,,,,,,,,,,,,,,,,,,
ABGP0001285,Active,APACHE PROVOST,GP,Castor East,KARVE ENERGY INC.,,100.0% - KARVE ENERGY INC.,,,,52.23582,111.78747,52971.99,52795.42,,0.0,0.0,0.0,0.0,62.93,,251.71,,24999.96,4237.76,0.0,0.0,,0.0,0.0,0.0,157.32,,0.0,7233.15,6738.39,0.0,0.0,0.0,0.0,12.65,89.09,,0.0,Gas Plant Sweet,05-03-038-13W4M,2021-06-01,7233.15,6738.39,0.0,129.49,103.47,1.65,0.0,0.0,0.0,0.0,0.0,0.0,0.0,0.0,0.0,0.0,12.65,89.09,0.0,0.0,0.0,0.0,0.0,0.0,0.0,0.0,0.0,0.0,,,,,,,,,,,,,,,,,,
ABGP0001864,Active,PANCDN CAVALIER,GP,Cavalier,LYNX ENERGY ULC,,100.0% - LYNX ENERGY ULC,1/1/1994,,,51.00682,113.17071,44143.33,42787.25,,0.0,0.0,0.0,0.0,0.0,,158.58,0.0,44143.33,42730.74,1.26,0.0,,0.0,0.0,0.0,76.77,,0.0,7504.01,7352.04,0.0,0.0,0.0,0.0,0.65,7.22,,0.0,Gas Plant Sweet,16-32-023-23W4M,2021-06-01,7504.01,7352.04,0.0,9.18,272.28,5.53,0.0,0.0,0.0,0.0,0.0,0.0,0.0,0.0,0.0,0.0,0.65,7.22,0.0,0.0,0.0,0.0,0.0,0.0,0.0,0.0,0.0,0.0,,,,,,,,,,,,,,,,,,
ABGP0001967,Suspended,CDN 88 CROSSFIELD EAST,GP,Cdn 88 Crossfield East,WHITECAP RESOURCES INC.,,100.0% - WHITECAP RESOURCES INC.,,,,51.61836,114.07504,,,,,,,,,,,,,,,,,,,,,,,2034.76,1717.68,0.0,0.0,0.0,0.0,0.0,53.65,,0.0,Gas Plant Sweet,16-33-030-01W5M,1999-02-01,2034.76,1717.68,0.0,66.21,197.64,0.0,53.22,0.0,0.0,0.0,0.0,0.0,0.0,0.0,0.0,0.0,0.0,53.65,0.0,0.0,0.0,0.0,0.0,0.0,0.0,0.0,0.0,0.0,,,,,,,,,,,,,,,,,,
ABGP0001348,Suspended,CDN CONQUEST RICH,GP,Cdn Conquest Rich,PRIMEWEST ENERGY INC.,,100.0% - 2234873 ALBERTA LTD.,,,,52.02442,112.91315,1059.44,,,,,,,,,,,,,,,,,,,,,,1646.8,1595.08,0.0,0.0,0.0,0.0,0.0,44.13,,0.0,Gas Plant Sweet,16-22-035-21W4M,1997-10-01,1646.8,1595.08,0.0,54.45,192.86,0.0,0.0,0.0,0.0,0.0,0.0,0.0,0.0,0.0,0.0,0.0,0.0,44.13,0.0,0.0,0.0,0.0,0.0,0.0,0.0,0.0,0.0,0.0,,,,,,,,,,,,,,,,,,
ABGP0001968,Suspended,CDN HUNTER PEDIGREE,GP,Cdn Hunter Pedigree,CONOCOPHILLIPS CANADA RESOURCES CORP.,,100.0% - CANADIAN NATURAL RESOURCES LIMITED,,,,57.74245,119.99342,13419.57,,,,,,,,,,,,,,,,,,,,,,238.32,156.52,0.0,0.0,0.0,0.0,2.78,0.73,,0.0,Gas Plant Sweet,13-01-101-13W6M,2000-01-01,238.32,156.52,0.0,10.94,60.49,0.0,10.37,0.0,0.0,0.0,0.0,0.0,0.0,0.0,0.0,0.0,2.78,0.73,0.0,0.0,0.0,0.0,0.0,0.0,0.0,0.0,0.0,0.0,,,,,,,,,,,,,,,,,,
ABGP0084773,Active,DUVERNAY 15-4-58-23W5M GAS PLANT,GP,Ceceilia,TOURMALINE OIL CORP.,,100.0% - TOURMALINE OIL CORP.,1/1/2005,,,53.99023,117.35530,100011.12,99304.83,,0.0,0.0,0.0,0.0,1181.8,,0.0,,98881.05,98881.05,0.0,0.0,,0.0,0.0,1573.22,629.29,,0.0,77236.82,77392.67,0.0,0.0,0.0,0.0,286.2,186.06,,0.0,Gas Plant Sweet,15-04-058-23W5M,2021-06-01,77236.82,77392.67,0.0,578.34,1067.56,9.89,0.0,0.0,0.0,0.0,0.0,0.0,0.0,0.0,0.0,0.0,286.2,186.06,0.0,0.0,0.0,0.0,0.0,0.0,0.0,0.0,0.0,0.0,,,,,,,,,,,,,,,,,,
ABGP0001649,Active,CECIL 08-15-084-08W6,GP,Cecil,CANADIAN NATURAL RESOURCES LIMITED,,100.0% - CANADIAN NATURAL RESOURCES LIMITED,1/1/1990,,,56.28201,119.16432,9203.0,8510.83,,,,,,,,464.41,,2057.43,1619.88,0.0,0.0,,0.0,0.0,0.0,0.0,,0.0,4506.97,4007.15,0.0,0.0,0.0,0.0,0.0,64.86,,0.0,Gas Plant Acid Gas Flaring < 1 T/d Sulphur,08-15-084-08W6M,2021-06-01,4506.97,4007.15,0.0,82.75,278.4,61.57,0.0,0.0,0.0,0.0,0.0,0.0,0.0,0.0,0.0,0.0,0.0,64.86,0.0,0.0,0.0,0.0,0.0,0.0,0.0,0.0,0.0,0.0,,,,,,,,,,,,,,,,,,
ABGP0001997,Active,CECIL NORTH 16-4-85-8W6,GP,Cecil North,CANADIAN NATURAL RESOURCES LIMITED,,36.5% - CANADIAN NATURAL RESOURCES LIMITED; 12.7% - CEQUENCE ENERGY LTD.; 20.9% - HARVEST OPERATIONS CORP.; 16.4% - TAQA NORTH LTD.; 1.9% - SWORD ENERGY INC.; 2.3% - ISH ENERGY LTD.; 9.7% - TERRA ENERGY CORP.,1/1/1998,,,56.34736,119.19071,56616.47,49864.3,,,,,,309.61,,,,6180.07,7062.93,0.0,0.0,,0.0,0.0,943.93,0.0,,0.0,1670.74,1343.61,0.0,0.0,0.0,0.0,14.22,0.0,,0.0,Gas Plant Acid Gas Flaring < 1 T/d Sulphur,16-04-085-08W6M,2021-06-01,1670.74,1343.61,0.0,16.48,210.83,32.84,0.0,0.0,0.0,0.0,0.0,0.0,0.0,0.0,0.0,0.0,14.22,0.0,0.0,0.0,0.0,0.0,0.0,0.0,0.0,0.0,0.0,0.0,,,,,,,,,,,,,,,,,,
ABGP0001666,Active,CECILIA 14-36-57-23W5,GP,Cecilia,CANADIAN NATURAL RESOURCES LIMITED,,100.0% - CANADIAN NATURAL RESOURCES LIMITED,,,,53.97558,117.28705,161105.49,159975.42,,0.0,0.0,0.0,0.0,0.0,,2145.87,,141258.65,137727.18,0.0,0.0,,0.0,0.0,943.93,1258.57,,0.0,43919.43,43315.08,0.0,0.0,0.0,0.0,267.66,488.2,,0.0,Gas Plant Sweet,14-36-057-23W5M,2021-06-01,43919.43,43315.08,0.0,945.37,910.77,13.77,0.0,0.0,0.0,0.0,0.0,0.0,0.0,0.0,0.0,0.0,267.66,488.2,0.0,0.0,0.0,0.0,0.0,0.0,0.0,0.0,0.0,0.0,,,,,,,,,,,,,,,,,,
ABGP0001314,Abandoned,CELSIUS HANNA,GP,Celsius Hanna,ENERPLUS CORPORATION,,100.0% - CANADIAN NATURAL RESOURCES LIMITED,,,,51.69442,111.85660,3001.75,,,,,,,,,,,,,,,,,,,,,,551.93,465.13,0.0,0.0,0.0,0.0,0.0,0.0,,0.0,Gas Plant Sweet,02-36-031-14W4M,1995-03-01,551.93,465.13,0.0,2.85,38.39,0.0,45.57,0.0,0.0,0.0,0.0,0.0,0.0,0.0,0.0,0.0,0.0,0.0,0.0,0.0,0.0,0.0,0.0,0.0,0.0,0.0,0.0,0.0,,,,,,,,,,,,,,,,,,
ABGP0001986,Abandoned,CELSIUS WORSLEY,GP,Celsius Worsley,ENERPLUS CORPORATION,,100.0% - ENERPLUS CORPORATION,,,,56.57201,118.50932,4975.84,4838.11,,,,,,,,30.21,,,,,,,,,,,,,97.12,0.0,0.0,0.0,0.0,0.0,0.27,0.0,,0.0,Gas Plant Sweet,08-26-087-04W6M,1999-09-01,97.12,0.0,0.0,0.24,1.41,0.0,95.47,0.0,0.0,0.0,0.0,0.0,0.0,0.0,0.0,0.0,0.27,0.0,0.0,0.0,0.0,0.0,0.0,0.0,0.0,0.0,0.0,0.0,,,,,,,,,,,,,,,,,,
ABGP0001022,Active,CESSFORD 02-08-024-12W4,GP,Cessford,CANADIAN NATURAL RESOURCES LIMITED,,47.0% - IMPERIAL OIL LIMITED; 52.0% - CANADIAN NATURAL RESOURCES LIMITED,1/1/1958,,,51.02502,111.64172,50005.56,49910.21,,0.0,0.0,0.0,0.0,37.76,,0.0,,59999.96,25906.48,,,,,,,125.86,,,19732.77,19177.86,0.0,0.0,0.0,0.0,10.34,0.0,,0.0,Gas Plant Sweet,02-08-024-12W4M,2021-06-01,19732.77,19177.86,0.0,12.01,1104.17,12.01,0.0,0.0,0.0,0.0,0.0,0.0,0.0,0.0,0.0,0.0,10.34,0.0,0.0,0.0,0.0,0.0,0.0,0.0,0.0,0.0,0.0,0.0,,,,,,,,,,,,,,,,,,
ABGP0001041,Abandoned,CESSFORD 3-6-24-10W4,GP,Cessford Plant,CANADIAN NATURAL RESOURCES LIMITED,,100.0% - CANADIAN NATURAL RESOURCES LIMITED,,,,51.01046,111.39158,10594.4,,,,,,,,,,,,,,,,,,,,,,112.67,112.67,0.0,0.0,0.0,0.0,0.0,0.0,,0.0,Gas Plant Sweet,03-06-024-10W4M,2005-12-01,112.67,112.67,0.0,0.0,0.0,0.0,0.0,0.0,0.0,0.0,0.0,0.0,0.0,0.0,0.0,0.0,0.0,0.0,0.0,0.0,0.0,0.0,0.0,0.0,0.0,0.0,0.0,0.0,,,,,,,,,,,,,,,,,,
ABGP0001694,Active,SUMMIT CRAIGMYLE,GP,Chain,TALLAHASSEE EXPLORATION INC.,,100.0% - TALLAHASSEE EXPLORATION INC.,,,,51.81451,112.45292,22954.53,22283.55,,0.0,0.0,0.0,0.0,22.03,,0.0,,4944.05,4767.48,0.0,0.0,,0.0,0.0,0.0,12.59,,0.0,23.78,22.01,0.0,0.0,0.0,0.0,0.0,0.0,,0.0,Gas Plant Sweet,06-11-033-18W4M,2021-06-01,23.78,22.01,0.0,0.0,0.0,0.0,0.0,0.0,0.0,0.0,0.0,0.0,0.0,0.0,0.0,0.0,0.0,0.0,0.0,0.0,0.0,0.0,0.0,0.0,0.0,0.0,0.0,0.0,,,,,,,,,,,,,,,,,,
ABGP0001080,Active,CALCRUDE CHERHILL,GP,Cherhill,JOURNEY ENERGY INC.,,90.0% - JOURNEY ENERGY INC.; 10.0% - RIDGMAR CANADA INC.,1/1/1972,,,53.84799,114.61854,6180.07,5509.09,,0.0,0.0,0.0,0.0,0.0,,359.32,,3178.32,3178.32,1415.9,0.0,,0.0,0.0,0.0,314.64,,0.0,1171.03,841.2,0.0,0.0,0.0,0.0,0.0,24.79,,0.0,Gas Plant Sweet,04-24-056-05W5M,2021-06-01,1171.03,841.2,0.0,32.61,302.88,9.89,0.0,0.0,0.0,0.0,0.0,0.0,0.0,0.0,0.0,0.0,0.0,24.79,0.0,0.0,0.0,0.0,0.0,0.0,0.0,0.0,0.0,0.0,,,,,,,,,,,,,,,,,,
ABGP0001679,Active,BONAVISTA CHERHILL,GP,Cherhill Solution Gas Conservation,LONG RUN EXPLORATION LTD.,,100.0% - LONG RUN EXPLORATION LTD.,,,,53.86254,114.75504,8828.67,8652.09,,,,,,75.51,,202.63,,9711.53,8899.29,377.57,0.0,,0.0,0.0,0.0,188.79,,0.0,2199.04,2113.35,0.0,0.0,0.0,0.0,0.0,22.68,,0.0,Gas Plant Acid Gas Flaring < 1 T/d Sulphur,02-25-056-06W5M,2021-06-01,2199.04,2113.35,0.0,30.84,23.78,49.56,0.0,0.0,0.0,0.0,0.0,0.0,0.0,0.0,0.0,0.0,0.0,22.68,0.0,0.0,0.0,0.0,0.0,0.0,0.0,0.0,0.0,0.0,,,,,,,,,,,,,,,,,,
ABGP0001808,Suspended,* CHEVRON BRAZEAU RIVER,GP,Chevron Brazeau River,KEYERA ENERGY LTD.,,100.0% - KEYERA ENERGY LTD.,,,,53.19052,115.63812,49440.53,45979.69,,0.0,0.0,0.0,0.0,622.99,,0.0,,,,,,,,,,,,,30089.57,0.0,0.0,0.0,0.0,0.0,0.0,0.0,,0.0,Gas Plant Sweet,16-35-048-12W5M,1991-10-01,30089.57,0.0,23767.22,3474.17,17.77,0.0,2830.41,0.0,0.0,0.0,0.0,0.0,0.0,0.0,0.0,0.0,0.0,0.0,0.0,0.0,0.0,0.0,0.0,0.0,0.0,0.0,0.0,0.0,,,,,,,,,,,,,,,,,,
ABGP0001806,Suspended,CHEVRON KAYBOB,GP,Chevron Kaybob,BP CANADA ENERGY GROUP ULC,,100.0% - ENERGY TRANSFER CANADA ULC,,,,54.09609,116.61698,671084.53,584952.07,,,15367.19,,,33666.85,,17424.96,2170.46,,,,,,,,,,,,0.0,0.0,0.0,0.0,0.0,0.0,0.0,0.02,,0.0,Gas Plant Sweet,03-15-059-18W5M,2003-08-01,0.0,0.0,0.0,0.0,0.0,0.0,0.0,0.0,0.0,0.0,0.0,0.0,0.0,0.0,0.0,0.0,0.0,0.02,0.0,0.0,0.0,0.0,0.0,0.0,0.0,0.0,0.0,0.0,,,,,,,,,,,,,,,,,,
ABGP0001896,Abandoned,CHEVRON MEDICINE LODGE,GP,Chevron Medicine Lodge,VERMILION ENERGY INC.,,100.0% - VERMILION ENERGY INC.,,,,53.47746,117.02635,4379.02,,,,,,,,,,,,,,,,,,,,,,1611.64,1408.35,0.0,0.0,0.0,0.0,0.0,23.81,,0.0,Gas Plant Sweet,09-09-052-21W5M,2001-04-01,1611.64,1408.35,0.0,26.72,31.55,1.88,143.14,0.0,0.0,0.0,0.0,0.0,0.0,0.0,0.0,0.0,0.0,23.81,0.0,0.0,0.0,0.0,0.0,0.0,0.0,0.0,0.0,0.0,,,,,,,,,,,,,,,,,,
ABGP0001732,Active,BONAVISTA TEES,GP,Chigwell,EMBER RESOURCES INC.,,100.0% - EMBER RESOURCES INC.,1/1/1998,,,52.51577,113.36040,32136.34,,,,,,,,,,,9181.81,8581.46,0.0,0.0,,0.0,0.0,0.0,0.0,,0.0,3341.59,2181.39,0.0,0.0,0.0,0.0,0.0,0.0,,0.0,Gas Plant Sweet,12-11-041-24W4M,2021-06-01,3341.59,2181.39,0.0,0.0,131.02,0.0,0.0,0.0,0.0,0.0,0.0,0.0,0.0,0.0,0.0,0.0,0.0,0.0,0.0,0.0,0.0,0.0,0.0,0.0,0.0,0.0,0.0,0.0,,,,,,,,,,,,,,,,,,
ABGP0001440,Suspended,ENERMARK CHIGWELL,GP,Chigwell Magee,EMBER RESOURCES INC.,,100.0% - EMBER RESOURCES INC.,1/1/1993,,,52.63215,113.57056,7062.93,,,,,,,,,,,5297.2,0.0,0.0,0.0,,0.0,0.0,0.0,493.99,,0.0,0.0,0.0,0.0,0.0,0.0,0.0,0.02,0.06,,0.0,Gas Plant Sweet,11-20-042-25W4M,2017-03-01,0.0,0.0,0.0,0.0,0.0,0.0,0.0,0.0,0.0,0.0,0.0,0.0,0.0,0.0,0.0,0.0,0.02,0.06,0.0,0.0,0.0,0.0,0.0,0.0,0.0,0.0,0.0,0.0,,,,,,,,,,,,,,,,,,
BCGP0002889,Suspended,TAQA NORTH CHINCHAGARIVER C-032-H/094-H-08 007,GP,Chinchaga,TAQA NORTH LTD.,,100.0% - TAQA NORTH LTD.,4/1/1998,,,57.36244,120.02026,49970.25,,,,,,,377.57,,,,49440.53,0.0,0.0,0.0,,0.0,0.0,0.0,0.0,,0.0,8.09,0.91,0.0,0.0,0.53,2.23,4.34,0.0,,0.0,,C-032-H 094-H-08,2020-03-01,8.09,0.91,0.0,0.0,0.0,0.0,0.0,0.0,0.0,0.0,0.0,0.53,0.0,2.23,0.0,0.0,4.34,0.0,0.0,0.0,0.0,0.0,0.0,0.0,0.0,0.0,0.0,0.0,,,,,,,,,,,,,,,,,,
ABGP0001427,Suspended,KEYERA CHINCHAGA NORTH 05-32-98-7W6,GP,Chinchaga North,KEYERA ENERGY LTD.,,100.0% - KEYERA ENERGY LTD.,1/1/1983,,,57.54618,119.10769,145425.78,141813.09,,,,,,745.71,,,,145425.78,141813.09,0.0,0.0,,0.0,0.0,0.0,0.0,,0.0,107.12,75.1,0.0,0.0,0.0,0.0,0.0,0.0,,0.0,Gas Plant Acid Gas Flaring < 1 T/d Sulphur,05-32-098-07W6M,2013-09-01,107.12,75.1,0.0,6.95,21.9,0.12,0.0,0.0,0.0,0.0,0.0,0.0,0.0,0.0,0.0,0.0,0.0,0.0,0.0,0.0,0.0,0.0,0.0,0.0,0.0,0.0,0.0,0.0,,,,,,,,,,,,,,,,,,
BCGP0007362,Active,WHITECAP BOUNDARYLAKE 02-25-085-14 005,GP,Chinook Boundary,WHITECAP RESOURCES INC.,,100.0% - WHITECAP RESOURCES INC.,9/1/2004,,,56.39360,120.06696,5473.77,0.0,,0.0,,0.0,0.0,0.0,0.0,0.0,0.0,2118.88,1765.73,,,,,,,,,,3078.97,2795.74,0.0,0.0,0.0,0.0,0.0,0.0,,0.0,,02-25-085-14W6M,2018-09-01,3078.97,2795.74,0.0,0.0,0.0,0.0,0.0,0.0,0.0,0.0,0.0,0.0,0.0,0.0,0.0,0.0,0.0,0.0,0.0,0.0,0.0,0.0,0.0,0.0,0.0,0.0,0.0,0.0,,,,,,,,,,,,,,,,,,
ABGP0001242,Active,BEI CHIP LAKE 10-29,GP,Chip Lake,WEST 5 RESOURCES INC.,,100.0% - WEST 5 RESOURCES INC.,,,,53.60848,115.43573,4767.48,4484.96,,,,,,,,232.84,,5968.18,5615.03,0.0,0.0,,0.0,0.0,0.0,0.0,,0.0,1047.43,852.97,0.0,0.0,0.0,0.0,11.77,27.27,,0.0,Gas Plant Sweet,10-29-053-10W5M,2021-06-01,1047.43,852.97,0.0,48.97,151.26,0.0,0.0,0.0,0.0,0.0,0.0,0.0,0.0,0.0,0.0,0.0,11.77,27.27,0.0,0.0,0.0,0.0,0.0,0.0,0.0,0.0,0.0,0.0,,,,,,,,,,,,,,,,,,
ABGP0001232,Suspended,APACHE PROVOST,GP,Choice,KARVE ENERGY INC.,,94.0% - BATTLE RIVER ENERGY LTD.,,,,52.44676,111.27331,12360.13,12006.99,,,,,,6.29,,,,5297.2,4944.05,0.0,35.49,,0.76,0.76,0.76,0.0,,0.0,1262.26,1138.78,0.0,0.0,0.0,0.0,2.94,0.0,,0.0,Gas Plant Acid Gas Flaring < 1 T/d Sulphur,13-17-040-09W4M,2009-06-01,1262.26,1138.78,0.0,3.41,115.01,0.0,0.0,0.0,0.0,0.0,0.0,0.0,0.0,0.0,0.0,0.0,2.94,0.0,0.0,0.0,0.0,0.0,0.0,0.0,0.0,0.0,0.0,0.0,,,,,,,,,,,,,,,,,,
ABGP0086359,Suspended,ARGOSY CLARESHOLM GAS PLANT,GP,Claresholm,LONG TERM ASSET MANAGEMENT INC.,,100.0% - LONG TERM ASSET MANAGEMENT INC.,,,,49.98818,113.43904,9994.05,9895.17,,0.0,0.0,0.0,0.0,38.39,,0.0,0.0,9888.11,9888.11,0.0,0.0,,0.0,0.0,0.0,157.32,,0.0,1644.65,1520.17,0.0,0.0,0.0,0.0,11.42,23.33,,0.0,Gas Plant Sweet,16-11-012-26W4M,2017-02-01,1644.65,1520.17,0.0,42.88,115.53,6.43,0.0,0.0,0.0,0.0,0.0,0.0,0.0,0.0,0.0,0.0,11.42,23.33,0.0,0.0,0.0,0.0,0.0,0.0,0.0,0.0,0.0,0.0,,,,,,,,,,,,,,,,,,
ABGP0001744,Suspended,COPAREX CLAYHURST GAS PLANT,GP,Clayhurst,DISTINCTION ENERGY CORP.,,100.0% - TIDEWATER MIDSTREAM AND INFRASTRUCTURE LTD.,1/1/1996,,,56.19828,118.65631,9994.05,,,,,,,,,,,7239.51,6956.99,0.0,0.0,,0.0,0.0,0.0,6.29,,0.0,316.07,285.04,0.0,0.0,0.0,0.0,0.0,2.07,,0.0,Gas Plant Sweet,12-13-083-05W6M,2013-02-01,316.07,285.04,0.0,2.52,28.13,0.0,0.0,0.0,0.0,0.0,0.0,0.0,0.0,0.0,0.0,0.0,0.0,2.07,0.0,0.0,0.0,0.0,0.0,0.0,0.0,0.0,0.0,0.0,,,,,,,,,,,,,,,,,,
ABGP0001880,Active,CLEAR HILLS BNDYLKS 16-11-88-13W6,GP,Clear Hills,CANADIAN NATURAL RESOURCES LIMITED,,100.0% - CANADIAN NATURAL RESOURCES LIMITED,,,,56.62271,119.94652,100014.66,97998.19,,,,,,176.83,,792.9,,79599.25,79599.25,,,,,,,,,,23217.27,23437.99,0.0,0.0,0.0,0.0,3.15,234.05,,0.0,Gas Plant Sulphur Recovery,16-11-088-13W6M,2021-06-01,23217.27,23437.99,146.56,311.48,530.66,56.62,0.0,0.0,0.0,0.0,0.0,0.0,0.0,0.0,0.0,0.0,3.15,234.05,0.0,0.0,0.0,0.0,0.0,0.0,0.0,0.0,0.0,0.0,,,,,,,,,,,,,,,,,,
ABGP0088508,Suspended,CLEAR PRAIRIE,GP,Clear Prairie,ALTAGAS LTD.,,100.0% - ALTAGAS LTD.,1/1/2006,,,56.84815,119.84674,15008.73,14899.26,,0.0,0.0,0.0,0.0,0.0,,102.57,,3651.89,3441.41,0.0,0.0,,0.0,0.0,0.0,0.0,,0.0,1007.83,879.9,0.0,0.0,0.0,0.0,0.0,0.0,,0.0,Gas Plant Sweet,07-33-090-12W6M,2016-03-01,1007.83,879.9,0.0,0.0,106.17,0.0,0.0,0.0,0.0,0.0,0.0,0.0,0.0,0.0,0.0,0.0,0.0,0.0,0.0,0.0,0.0,0.0,0.0,0.0,0.0,0.0,0.0,0.0,,,,,,,,,,,,,,,,,,
ABGP0001317,Suspended,OPAL CLIVE,GP,Clive Refrigeration,EMBER RESOURCES INC.,,100.0% - EMBER RESOURCES INC.,1/1/1988,,,52.45405,113.33038,6003.49,5968.18,,0.0,0.0,0.0,0.0,0.0,,56.01,,6709.79,6003.49,0.0,1006.86,,188.79,31.46,31.46,12.59,,0.0,275.68,275.34,0.0,0.0,0.0,0.0,0.0,0.0,,0.0,Gas Plant Sweet,06-24-040-24W4M,2012-12-01,275.68,275.34,0.0,0.0,0.0,0.0,0.0,0.0,0.0,0.0,0.0,0.0,0.0,0.0,0.0,0.0,0.0,0.0,0.0,0.0,0.0,0.0,0.0,0.0,0.0,0.0,0.0,0.0,,,,,,,,,,,,,,,,,,
ABGP0001443,Suspended,CONOCO WESTLOCK,GP,Clyde,PARAMOUNT RESOURCES LTD.,,100.0% - PARAMOUNT RESOURCES LTD.,1/1/1980,,,54.09185,113.63487,21082.85,,,,,,,,,,,7062.93,0.0,0.0,0.0,,0.0,0.0,0.0,0.0,,0.0,490.19,424.35,0.0,0.0,0.0,0.0,0.55,0.0,,0.0,Gas Plant Acid Gas Flaring < 1 T/d Sulphur,15-11-059-25W4M,2018-07-01,490.19,424.35,0.0,0.68,0.0,46.82,0.0,0.0,0.0,0.0,0.0,0.0,0.0,0.0,0.0,0.0,0.55,0.0,0.0,0.0,0.0,0.0,0.0,0.0,0.0,0.0,0.0,0.0,,,,,,,,,,,,,,,,,,
ABGP0001903,Active,COCHRANE EXTRACTION PLANT,GP,Cochrane Straddle Plant,INTER PIPELINE EXTRACTION LTD.,,100.0% - INTER PIPELINE LTD.,1/1/1970,,,51.22509,114.49303,2487917.97,2487917.97,,79925.74,0.0,0.0,0.0,0.0,,39959.72,,2499999.82,0.0,0.0,65024.23,,33012.4,0.0,0.0,0.0,,0.0,2192456.55,2047143.66,46269.46,0.0,0.0,0.0,0.0,32583.14,,0.0,Gas Plant Mainline Straddle,16-16-026-04W5M,2021-06-01,2192456.55,2047143.66,0.0,120919.05,23516.98,68.28,0.0,0.0,0.0,46269.46,0.0,0.0,0.0,0.0,0.0,0.0,0.0,32583.14,0.0,0.0,0.0,0.0,0.0,0.0,0.0,0.0,0.0,0.0,,,,,,,,,,,,,,,,,,
ABGP0001051,Active,DEVON SAVANNA CREEK,GP,Coleman,CANADIAN NATURAL RESOURCES LIMITED,,100.0% - CANADIAN NATURAL RESOURCES LIMITED,1/1/1961,,,49.62787,114.56868,99269.52,72112.54,,0.0,0.0,0.0,0.0,44.05,,0.0,870.16,77091.91,76985.96,0.0,0.0,,0.0,0.0,0.0,0.0,,771.62,0.0,0.0,0.0,0.0,0.0,0.0,0.0,0.0,,191.91,Gas Plant Sulphur Recovery,01-11-008-05W5M,2012-07-01,0.0,0.0,0.0,0.0,0.0,0.0,0.0,0.0,0.0,0.0,0.0,0.0,0.0,0.0,0.0,0.0,0.0,0.0,191.91,0.0,0.0,0.0,0.0,0.0,0.0,0.0,0.0,0.0,,,,,,,,,,,,,,,,,,
ABGP0140842,Active,COLUMBIA 15-36-044-15W5 GAS PLANT,GP,Columbia,TOURMALINE OIL CORP.,,,,,,52.84154,116.04149,59893.67,53325.14,,0.0,0.0,0.0,0.0,2257.88,,736.27,,,,,,,,,,,,,75825.76,72581.4,0.0,0.0,0.0,0.0,898.12,1155.2,,0.0,Gas Plant Sweet,15-36-044-15W5M,2021-06-01,75825.76,72581.4,0.0,2613.99,2616.82,26.72,0.0,0.0,0.0,0.0,0.0,0.0,0.0,0.0,0.0,0.0,898.12,1155.2,0.0,0.0,0.0,0.0,0.0,0.0,0.0,0.0,0.0,0.0,,,,,,,,,,,,,,,,,,
ABGP0001016,Suspended,COMETRA WOOD RIVER,GP,Cometra Wood River,VINTAGE PETROLEUM CANADA; INC.,,100.0% - VINTAGE PETROLEUM CANADA  INC.,,,,52.69611,113.29673,,,,,,,,,,,,,,,,,,,,,,,714.27,603.2,0.0,0.0,0.0,0.0,0.0,0.0,,0.0,Gas Plant Sweet,16-08-043-23W4M,1994-10-01,714.27,603.2,0.0,1.37,65.05,3.42,41.24,0.0,0.0,0.0,0.0,0.0,0.0,0.0,0.0,0.0,0.0,0.0,0.0,0.0,0.0,0.0,0.0,0.0,0.0,0.0,0.0,0.0,,,,,,,,,,,,,,,,,,
ABGP0001574,Suspended,PENN WEST COMPEER,GP,Compeer,OBSIDIAN ENERGY LTD.,,100.0% - OBSIDIAN ENERGY LTD.,,,,51.86897,110.14362,7062.93,6952.4,,0.0,0.0,0.0,0.0,0.0,,81.81,,10000.05,10000.05,0.0,0.0,,0.0,0.0,0.0,62.93,,0.0,1887.22,1480.51,0.0,0.0,0.0,0.0,14.16,0.0,,0.0,Gas Plant Acid Gas Flaring < 1 T/d Sulphur,04-31-033-01W4M,2020-04-01,1887.22,1480.51,0.0,16.48,160.56,0.0,0.0,0.0,0.0,0.0,0.0,0.0,0.0,0.0,0.0,0.0,14.16,0.0,0.0,0.0,0.0,0.0,0.0,0.0,0.0,0.0,0.0,0.0,,,,,,,,,,,,,,,,,,
ABGP0001382,Suspended,COMPTON BIGORAY GAS PLANT,GP,Compton Bigoray,LEXIN RESOURCES LTD.,,100.0% - TALLGRASS ENERGY CORP.,,,,53.39022,115.28229,882.87,,,,,,,,,,,,,,,,,,,,,,0.0,0.0,0.0,0.0,0.0,0.0,0.0,14.03,,0.0,Gas Plant Sweet,09-08-051-09W5M,2001-08-01,0.0,0.0,0.0,0.0,0.0,0.0,0.0,0.0,0.0,0.0,0.0,0.0,0.0,0.0,0.0,0.0,0.0,14.03,0.0,0.0,0.0,0.0,0.0,0.0,0.0,0.0,0.0,0.0,,,,,,,,,,,,,,,,,,
ABGP0001311,Suspended,CONNORSVILLE 9-32-25-15W4,GP,Connorsville,CANADIAN NATURAL RESOURCES LIMITED,,100.0% - CANADIAN NATURAL RESOURCES LIMITED,1/1/1977,,,51.17783,112.05466,30003.34,,,,,,,,,,,5754.17,5443.76,,,,,,,31.46,,,289.12,210.98,0.0,0.0,0.0,0.0,3.63,0.0,,0.0,Gas Plant Sweet,09-32-025-15W4M,2019-07-01,289.12,210.98,0.0,4.21,16.97,0.0,0.0,0.0,0.0,0.0,0.0,0.0,0.0,0.0,0.0,0.0,3.63,0.0,0.0,0.0,0.0,0.0,0.0,0.0,0.0,0.0,0.0,0.0,,,,,,,,,,,,,,,,,,
ABGP0001883,Suspended,CONOCO HOTCHKISS,GP,Conoco Hotchkiss,CONOCOPHILLIPS CANADA RESOURCES CORP.,,100.0% - DIRECT OIL & GAS INC.,,,,57.15374,118.33272,22001.03,,,,,,,,,,,,,,,,,,,,,,2950.89,2653.9,0.0,0.0,0.0,0.0,0.0,0.0,,0.0,Gas Plant Sweet,07-13-094-03W6M,2000-11-01,2950.89,2653.9,0.0,0.0,210.95,0.0,86.05,0.0,0.0,0.0,0.0,0.0,0.0,0.0,0.0,0.0,0.0,0.0,0.0,0.0,0.0,0.0,0.0,0.0,0.0,0.0,0.0,0.0,,,,,,,,,,,,,,,,,,
ABGP0001036,Active,APACHE PROVOST,GP,Consort,KARVE ENERGY INC.,,100.0% - KARVE ENERGY INC.,,,,52.10473,110.69847,49899.62,49087.38,,0.0,0.0,0.0,0.0,62.93,,332.26,,35314.66,35314.66,0.0,0.0,,0.0,0.0,0.0,629.29,,0.0,16546.1,14157.53,0.0,0.0,0.0,0.0,0.31,447.34,,0.0,Gas Plant Sweet,08-19-036-05W4M,2021-06-01,16546.1,14157.53,0.0,601.88,902.88,2.12,0.0,0.0,0.0,0.0,0.0,0.0,0.0,0.0,0.0,0.0,0.31,447.34,0.0,0.0,0.0,0.0,0.0,0.0,0.0,0.0,0.0,0.0,,,,,,,,,,,,,,,,,,
ABGP0083667,Suspended,CORBET GAS PLANT 15-10-62-6 W5,GP,Corbet,N7 ENERGY LTD.,,100.0% - N7 ENERGY LTD.,,,,54.35381,114.81112,23943.34,22777.96,,0.0,0.0,0.0,0.0,251.71,,0.0,0.0,21895.09,5297.2,0.0,0.0,,0.0,0.0,0.0,0.0,,0.0,2193.84,2019.66,0.0,0.0,0.0,0.0,0.0,0.0,,0.0,Gas Plant Sweet,15-10-062-06W5M,2017-05-01,2193.84,2019.66,0.0,0.0,154.7,0.68,0.0,0.0,0.0,0.0,0.0,0.0,0.0,0.0,0.0,0.0,0.0,0.0,0.0,0.0,0.0,0.0,0.0,0.0,0.0,0.0,0.0,0.0,,,,,,,,,,,,,,,,,,
ABGP0092557,Suspended,CORBETT 10-03-61-07W5M GAS PLANT,GP,Corbett,VELVET ENERGY LTD.,,100.0% - VELVET ENERGY LTD.,1/1/2005,,,54.24852,114.96101,6003.49,5897.55,,0.0,0.0,0.0,0.0,0.0,,34.61,,5297.2,5297.2,943.93,,,,,,94.39,,,306.21,174.86,0.0,0.0,0.0,0.0,0.0,8.34,,0.0,Gas Plant Sweet,10-03-061-07W5M,2016-07-01,306.21,174.86,0.0,10.25,159.94,0.0,0.0,0.0,0.0,0.0,0.0,0.0,0.0,0.0,0.0,0.0,0.0,8.34,0.0,0.0,0.0,0.0,0.0,0.0,0.0,0.0,0.0,0.0,,,,,,,,,,,,,,,,,,
ABGP0001038,Active,APF ENERGY COUNTESS,GP,Countess,JOURNEY ENERGY INC.,,24.1% - CENOVUS FCCL LTD.; 22.7% - ENERMARK INC.; 53.3% - JOURNEY ENERGY INC.,1/1/1960,,,50.73756,112.08500,26132.85,24861.52,,0.0,0.0,0.0,0.0,0.0,,25.17,,20023.41,20023.41,0.0,0.0,,0.0,0.0,0.0,0.0,,0.0,8246.09,8109.07,0.0,0.0,0.0,0.0,0.8,0.0,,0.0,Gas Plant Sweet,08-36-020-16W4M,2021-06-01,8246.09,8109.07,0.0,0.94,29.43,0.0,0.0,0.0,0.0,0.0,0.0,0.0,0.0,0.0,0.0,0.0,0.8,0.0,0.0,0.0,0.0,0.0,0.0,0.0,0.0,0.0,0.0,0.0,,,,,,,,,,,,,,,,,,
ABGP0090927,Active,WIN COWLEY 13-34-8-2W5 PLANT,GP,Cowley,TAMARACK ACQUISITION CORP.,,100.0% - TAMARACK ACQUISITION CORP.,1/1/2006,,,49.69688,114.20135,9948.14,9609.12,,0.0,0.0,0.0,0.0,0.0,,13.84,0.0,9948.14,9609.12,0.0,0.0,,0.0,0.0,0.0,13.84,,0.0,2554.54,2468.38,0.0,0.0,0.0,0.0,0.0,0.0,,0.0,Gas Plant Sweet,13-34-008-02W5M,2021-06-01,2554.54,2468.38,0.0,0.0,84.05,1.65,0.0,0.0,0.0,0.0,0.0,0.0,0.0,0.0,0.0,0.0,0.0,0.0,0.0,0.0,0.0,0.0,0.0,0.0,0.0,0.0,0.0,0.0,,,,,,,,,,,,,,,,,,
ABGP0086769,Suspended,COWPAR 11-19-80-4W4,GP,Cowpar,CANADIAN NATURAL RESOURCES LIMITED,,100.0% - CANADIAN NATURAL RESOURCES LIMITED,,,,55.94982,110.62205,21982.67,,,,,,,,,,,17657.33,17657.33,0.0,0.0,,0.0,0.0,0.0,0.0,,0.0,1.94,0.0,0.0,0.0,0.0,0.0,0.0,0.0,,0.0,Gas Plant Acid Gas Flaring < 1 T/d Sulphur,11-19-080-04W4M,2017-03-01,1.94,0.0,0.0,0.0,1.94,0.0,0.0,0.0,0.0,0.0,0.0,0.0,0.0,0.0,0.0,0.0,0.0,0.0,0.0,0.0,0.0,0.0,0.0,0.0,0.0,0.0,0.0,0.0,,,,,,,,,,,,,,,,,,
ABGP0001464,Active,PROVIDENT CRAIGMYLE,GP,Craigmyle,PRAIRIE PROVIDENT RESOURCES CANADA LTD.,,100.0% - PRAIRIE PROVIDENT RESOURCES CANADA LTD.,1/1/1984,,,51.71994,112.38787,8021.37,7352.16,,0.0,0.0,0.0,0.0,0.0,,310.24,,5297.2,4944.05,0.0,0.0,,0.0,0.0,0.0,0.0,,0.0,1548.83,1368.5,0.0,0.0,0.0,0.0,0.0,47.36,,0.0,Gas Plant Sweet,13-05-032-17W4M,2020-05-01,1548.83,1368.5,0.0,63.34,0.0,0.0,0.0,0.0,0.0,0.0,0.0,0.0,0.0,0.0,0.0,0.0,0.0,47.36,0.0,0.0,0.0,0.0,0.0,0.0,0.0,0.0,0.0,0.0,,,,,,,,,,,,,,,,,,
ABGP0001541,Active,D ENERGY CRAIGMYLE MICHI 13-28-31-16,GP,Craigmyle East,PRAIRIE PROVIDENT RESOURCES CANADA LTD.,,100.0% - PRAIRIE PROVIDENT RESOURCES CANADA LTD.,1/1/1985,,,51.69091,112.22251,10001.11,9534.96,,0.0,0.0,0.0,0.0,42.79,,0.0,,12360.13,12360.13,125.86,0.0,,0.0,0.0,0.0,94.39,,0.0,3390.44,3103.33,0.0,0.0,0.0,0.0,0.0,40.06,,0.0,Gas Plant Sweet,13-28-031-16W4M,2021-06-01,3390.44,3103.33,0.0,51.91,302.88,0.0,0.0,0.0,0.0,0.0,0.0,0.0,0.0,0.0,0.0,0.0,0.0,40.06,0.0,0.0,0.0,0.0,0.0,0.0,0.0,0.0,0.0,0.0,,,,,,,,,,,,,,,,,,
ABGP0001380,Active,CHINCHAGA 1-24-96-5W6,GP,Cranberry,CANADIAN NATURAL RESOURCES LIMITED,,100.0% - CANADIAN NATURAL RESOURCES LIMITED,,,,57.33900,118.65430,88286.66,,,,,,,,,,,275454.37,275454.37,0.0,0.0,,0.0,0.0,2831.79,1573.22,,0.0,11006.17,9409.83,0.0,0.0,0.0,0.0,248.27,294.32,,0.0,Gas Plant Sweet,01-24-096-05W6M,2021-06-01,11006.17,9409.83,0.0,712.77,911.0,11.18,0.0,0.0,0.0,0.0,0.0,0.0,0.0,0.0,0.0,0.0,248.27,294.32,0.0,0.0,0.0,0.0,0.0,0.0,0.0,0.0,0.0,0.0,,,,,,,,,,,,,,,,,,
ABGP0001320,Suspended,RANGER HUSSAR,GP,Crawling Valley,TORXEN ENERGY LTD.,,78.0% - TORXEN ENERGY LTD.; 22.0% - CANADIAN NATURAL RESOURCES LIMITED,,,,50.99965,112.46135,10594.4,,,,,,,,,,,11477.27,11477.27,0.0,0.0,,0.0,0.0,0.0,94.39,,0.0,0.0,0.0,0.0,0.0,0.0,0.0,0.0,1.22,,0.0,Gas Plant Sweet,06-33-023-18W4M,2013-08-01,0.0,0.0,0.0,0.0,0.0,0.0,0.0,0.0,0.0,0.0,0.0,0.0,0.0,0.0,0.0,0.0,0.0,1.22,0.0,0.0,0.0,0.0,0.0,0.0,0.0,0.0,0.0,0.0,,,,,,,,,,,,,,,,,,
ABGP0001469,Suspended,* CRESTAR BANTRY,GP,Crestar Bantry,STRATHCONA RESOURCES LTD.,,100.0% - CARDINAL ENERGY LTD.,,,,50.54091,111.79457,282.52,,,,,,,,,,,,,,,,,,,,,,483.92,0.0,0.0,0.0,0.0,0.0,0.0,0.0,,0.0,Gas Plant Acid Gas Flaring > 1 T/d Sulphur,16-24-018-14W4M,1992-03-01,483.92,0.0,0.0,41.92,99.56,65.62,276.82,0.0,0.0,0.0,0.0,0.0,0.0,0.0,0.0,0.0,0.0,0.0,0.0,0.0,0.0,0.0,0.0,0.0,0.0,0.0,0.0,0.0,,,,,,,,,,,,,,,,,,
ABGP0001558,Abandoned,CRESTAR CROSSFIELD,GP,Crestar Crossfield,CONOCOPHILLIPS CANADA ENERGY PARTNERSHIP,,100.0% - CONOCOPHILLIPS CANADA RESOURCES CORP.,,,,51.48385,114.32094,1412.59,,,,,,,,,,,,,,,,,,,,,,576.88,0.0,0.0,0.0,0.0,0.0,0.0,0.0,,0.0,Gas Plant Acid Gas Flaring > 1 T/d Sulphur,11-14-029-03W5M,1997-08-01,576.88,0.0,0.0,0.0,14.35,7.18,555.35,0.0,0.0,0.0,0.0,0.0,0.0,0.0,0.0,0.0,0.0,0.0,0.0,0.0,0.0,0.0,0.0,0.0,0.0,0.0,0.0,0.0,,,,,,,,,,,,,,,,,,
ABGP0001555,Suspended,CRESTAR ELNORA,GP,Crestar Elnora,PINE CLIFF ENERGY LTD.,,100.0% - PINE CLIFF ENERGY LTD.,,,,51.94224,113.23806,3178.32,,,,,,,,,,,,,,,,,,,,,,2405.28,0.0,0.0,0.0,0.0,0.0,0.0,31.53,,0.0,Gas Plant Sweet,04-29-034-23W4M,2002-09-01,2405.28,0.0,0.0,38.02,135.84,0.0,0.0,0.0,0.0,0.0,0.0,0.0,0.0,0.0,0.0,0.0,0.0,31.53,0.0,0.0,0.0,0.0,0.0,0.0,0.0,0.0,0.0,0.0,,,,,,,,,,,,,,,,,,
ABGP0001098,Suspended,CRESTAR GILBY N,GP,Crestar Gilby N,CENOVUS ENERGY INC.,,100.0% - CENOVUS ENERGY INC.,,,,52.51771,114.44843,4414.33,,,,,,,,,,,,,,,,,,,,,,1614.7,1447.55,0.0,0.0,0.0,0.0,0.0,41.18,,0.0,Gas Plant Sweet,11-12-041-04W5M,1997-04-01,1614.7,1447.55,0.0,46.97,52.97,0.35,66.86,0.0,0.0,0.0,0.0,0.0,0.0,0.0,0.0,0.0,0.0,41.18,0.0,0.0,0.0,0.0,0.0,0.0,0.0,0.0,0.0,0.0,,,,,,,,,,,,,,,,,,
ABGP0001337,Suspended,CRESTAR GOODWIN,GP,Crestar Goodwin,CENOVUS ENERGY INC.,,100.0% - CENOVUS ENERGY INC.,,,,54.14679,115.81082,,,,,,,,,,,,,,,,,,,,,,,0.0,0.0,0.0,0.0,0.0,0.0,2.48,0.0,,0.0,Gas Plant Acid Gas Flaring < 1 T/d Sulphur,10-36-059-13W5M,2002-04-01,0.0,0.0,0.0,0.0,0.0,0.0,0.0,0.0,0.0,0.0,0.0,0.0,0.0,0.0,0.0,0.0,2.48,0.0,0.0,0.0,0.0,0.0,0.0,0.0,0.0,0.0,0.0,0.0,,,,,,,,,,,,,,,,,,
ABGP0001665,Abandoned,* CRESTAR LONG COULEE,GP,Crestar Long Coulee,CONOCOPHILLIPS CANADA ENERGY PARTNERSHIP,,100.0% - SURGE ENERGY INC.,,,,50.19896,113.01019,3990.56,,,,,,,,,,,,,,,,,,,,,,20.05,0.0,0.0,0.0,0.0,0.0,0.0,0.0,,0.0,Gas Plant Sulphur Recovery,08-25-014-23W4M,1996-10-01,20.05,0.0,20.05,0.0,0.0,0.0,0.0,0.0,0.0,0.0,0.0,0.0,0.0,0.0,0.0,0.0,0.0,0.0,0.0,0.0,0.0,0.0,0.0,0.0,0.0,0.0,0.0,0.0,,,,,,,,,,,,,,,,,,
ABGP0001087,Suspended,* CRESTAR OYEN,GP,Crestar Oyen,CONOCOPHILLIPS CANADA ENERGY PARTNERSHIP,,100.0% - CONOCOPHILLIPS CANADA ENERGY PARTNERSHIP,,,,51.44334,110.58213,,,,,,,,,,,,,,,,,,,,,,,44.31,20.96,0.0,0.0,0.0,0.0,0.0,0.0,,0.0,Gas Plant Sweet,14-36-028-05W4M,1997-01-01,44.31,20.96,0.0,0.0,2.51,0.0,20.85,0.0,0.0,0.0,0.0,0.0,0.0,0.0,0.0,0.0,0.0,0.0,0.0,0.0,0.0,0.0,0.0,0.0,0.0,0.0,0.0,0.0,,,,,,,,,,,,,,,,,,
ABGP0001271,Suspended,CRESTAR PROVOST,GP,Crestar Provost,CONOCOPHILLIPS CANADA ENERGY PARTNERSHIP,,100.0% - BATTLE RIVER ENERGY LTD.,,,,52.33036,111.12946,3178.32,,,,,,,,,,,,,,,,,,,,,,1019.42,987.4,0.0,0.0,0.0,0.0,0.0,0.0,,0.0,Gas Plant Sweet,13-05-039-08W4M,2000-06-01,1019.42,987.4,0.0,0.0,1.18,3.3,27.55,0.0,0.0,0.0,0.0,0.0,0.0,0.0,0.0,0.0,0.0,0.0,0.0,0.0,0.0,0.0,0.0,0.0,0.0,0.0,0.0,0.0,,,,,,,,,,,,,,,,,,
ABGP0001474,Abandoned,CRESTAR RUMSEY,GP,Crestar Rumsey,CONOCOPHILLIPS CANADA ENERGY PARTNERSHIP,,100.0% - PINE CLIFF ENERGY LTD.,,,,51.90180,112.84273,5968.18,,,,,,,,,,,,,,,,,,,,,,743.96,614.36,0.0,0.0,0.0,0.0,0.0,14.79,,0.0,Gas Plant Sweet,08-12-034-21W4M,1999-11-01,743.96,614.36,0.0,18.13,74.63,0.0,36.84,0.0,0.0,0.0,0.0,0.0,0.0,0.0,0.0,0.0,0.0,14.79,0.0,0.0,0.0,0.0,0.0,0.0,0.0,0.0,0.0,0.0,,,,,,,,,,,,,,,,,,
ABGP0001505,Abandoned,CRESTAR TROCHU TWINING,GP,Crestar Trochu Twining,CONOCOPHILLIPS CANADA ENERGY PARTNERSHIP,,100.0% - CONOCOPHILLIPS CANADA RESOURCES CORP.,,,,51.78175,113.26167,6533.21,,,,,,,,,,,,,,,,,,,,,,1937.64,1809.14,0.0,0.0,0.0,0.0,0.0,27.53,,0.0,Gas Plant Sweet,04-31-032-23W4M,2002-12-01,1937.64,1809.14,0.0,36.23,68.58,0.0,0.0,0.0,0.0,0.0,0.0,0.0,0.0,0.0,0.0,0.0,0.0,27.53,0.0,0.0,0.0,0.0,0.0,0.0,0.0,0.0,0.0,0.0,,,,,,,,,,,,,,,,,,
ABGP0001636,Abandoned,* CRESTAR VALHALLA,GP,Crestar Valhalla,CONOCOPHILLIPS CANADA ENERGY PARTNERSHIP,,100.0% - CANADIAN NATURAL RESOURCES LIMITED,,,,55.55782,119.15409,3531.47,,,,,,,,,,,,,,,,,,,,,,8065.64,0.0,0.0,0.0,0.0,0.0,0.0,0.0,,0.0,Gas Plant Sweet,11-03-076-08W6M,1995-12-01,8065.64,0.0,0.0,0.0,0.0,0.0,8065.64,0.0,0.0,0.0,0.0,0.0,0.0,0.0,0.0,0.0,0.0,0.0,0.0,0.0,0.0,0.0,0.0,0.0,0.0,0.0,0.0,0.0,,,,,,,,,,,,,,,,,,
ABGP0001386,Active,AMOCO WILLESDEN GREEN,GP,Crimson Lake,OBSIDIAN ENERGY LTD.,,100.0% - OBSIDIAN ENERGY LTD.,1/1/1980,,,52.65230,115.07786,60034.93,49440.53,,5.66,0.0,34.61,6.29,0.0,,1447.36,,49440.53,49440.53,7551.44,0.0,,1573.22,0.0,0.0,2202.5,,0.0,26665.51,24970.29,0.0,0.0,0.0,0.0,0.0,1049.36,,0.0,Gas Plant Sweet,13-27-042-08W5M,2021-06-01,26665.51,24970.29,0.0,1449.31,340.08,11.89,0.0,0.0,0.0,0.0,0.0,0.0,0.0,0.0,0.0,0.0,0.0,1049.36,0.0,0.0,0.0,0.0,0.0,0.0,0.0,0.0,0.0,0.0,,,,,,,,,,,,,,,,,,
